unit_id,plant_id,unit_name,plant_name,operating_status,primary_fuel,technology,capacity,capacity_rating,admin_0,admin_1,latitude,longitude,location_accuracy,secondary_fuel,tertiary_fuel,quaternary_fuel,quinary_fuel,start_date,retired_date,planned_retire_date,is_captive,captive_use,captive_sector,has_ccs,constructed_before,constructed_after,construction_date,river,operating_status_detail
TZPWR2403000054317U000,TZPWR2403000054317,AB Solar Park,AB Solar Park,committed,NA,photovoltaic-unspecified,20,MWp/dc,PAK,PAK-PB,33.7667,72.3776,approximate,NA,NA,NA,NA,,,,FALSE,,,FALSE,,,,,pre_construction
TZPWR2403000054318U000,TZPWR2403000054318,ACT1 Wind Energy wind farm - 1,ACT1 Wind Energy wind farm,operating,NA,wind-onshore,30,MW,PAK,PAK-SD,24.9523,67.8541,exact,NA,NA,NA,NA,01/01/2016,,,FALSE,,,FALSE,,,,,operating
TZPWR2403000054319U000,TZPWR2403000054319,ACT2 Wind Energy wind farm - 2,ACT2 Wind Energy wind farm,operating,NA,wind-onshore,50,MW,PAK,PAK-SD,24.9533,67.8389,exact,NA,NA,NA,NA,01/01/2022,,,FALSE,,,FALSE,,,,,operating
TZPWR2403000054320U000,TZPWR2403000054320,AES wind farm,AES wind farm,inactive,NA,wind-onshore,150,MW,PAK,PAK-SD,24.7813,67.6181,approximate,NA,NA,NA,NA,,,,FALSE,,,FALSE,,,,,cancelled
TZPWR2403000054321U000,TZPWR2403000054321,APTMA Pothohar power station - --,APTMA Pothohar power station,inactive,coal-unspecified,coal-unspecified,330,MW,PAK,PAK-PB,32.588,73.042,approximate,NA,NA,NA,NA,,,,TRUE,non_industrial,textiles,FALSE,,,,,cancelled
TZPWR2403000054322U000,TZPWR2403000054322,Adhi Kot solar project,Adhi Kot solar project,operating,NA,photovoltaic-unspecified,12,MWac,PAK,PAK-PB,32.094,71.814,approximate,NA,NA,NA,NA,01/01/2015,,,FALSE,,,FALSE,,,,,operating
TZPWR2403000054323U000,TZPWR2403000054323,Aerem Energy wind farm,Aerem Energy wind farm,inactive,NA,wind-onshore,250,MW,PAK,PAK-SD,24.7513,67.9126,approximate,NA,NA,NA,NA,,,,FALSE,,,FALSE,,,,,shelved
TZPWR2403000054324U000,TZPWR2403000054324,Akhori Dam hydroelectric plant,Akhori Dam hydroelectric plant,committed,water,hydro-reservoir,600,MW,PAK,PAK-PB,33.7064,72.4428,exact,NA,NA,NA,NA,,,,FALSE,,,FALSE,,,,Haro River,pre_construction
TZPWR2403000054325U000,TZPWR2403000054325,Allai Khwar hydroelectric plant,Allai Khwar hydroelectric plant,operating,water,hydro-reservoir,121,MW,PAK,PAK-NW,34.8464,73.0006,exact,NA,NA,NA,NA,01/01/2013,,,FALSE,,,FALSE,,,,Allai Khwar River,operating
TZPWR2403000054326U000,TZPWR2403000054326,Arabian Sea wind farm,Arabian Sea wind farm,inactive,NA,wind-onshore,50,MW,PAK,PAK-SD,24.4966,67.4965,exact,NA,NA,NA,NA,,,,FALSE,,,FALSE,,,,,cancelled
TZPWR2403000054327U000,TZPWR2403000054327,Arkari Gol hydroelectric plant,Arkari Gol hydroelectric plant,committed,water,hydro-run-of-river,99,MW,PAK,PAK-NW,36.2501,72.2501,approximate,NA,NA,NA,NA,01/01/2025,,,FALSE,,,FALSE,,,,Arkari Gol River,pre_construction
TZPWR2403000054328U000,TZPWR2403000054328,Artistic Energy wind farm - 1,Artistic Energy wind farm,operating,NA,wind-onshore,49,MW,PAK,PAK-SD,24.9543,67.8666,exact,NA,NA,NA,NA,01/01/2018,,,FALSE,,,FALSE,,,,,operating
TZPWR2403000054328U001,TZPWR2403000054328,Artistic Energy wind farm - 2,Artistic Energy wind farm,operating,NA,wind-onshore,50,MW,PAK,PAK-SD,24.997,67.8685,exact,NA,NA,NA,NA,01/01/2022,,,FALSE,,,FALSE,,,,,operating
TZPWR2403000054329U000,TZPWR2403000054329,Ashkot hydroelectric plant,Ashkot hydroelectric plant,committed,water,hydro-reservoir,300,MW,PAK,PAK-JK,34.4983,73.8405,exact,NA,NA,NA,NA,,,,FALSE,,,FALSE,,,,Neelum River,pre_construction
TZPWR2403000054330U000,TZPWR2403000054330,Asrit-Kedam hydroelectric plant,Asrit-Kedam hydroelectric plant,committed,water,hydro-run-of-river,215,MW,PAK,PAK-NW,34.7701,72.3397,approximate,NA,NA,NA,NA,01/01/2029,,,FALSE,,,FALSE,,,,Swat River,pre_construction
TZPWR2403000054331U000,TZPWR2403000054331,Athmuqam hydroelectric plant,Athmuqam hydroelectric plant,committed,water,hydro-run-of-river,350,MW,PAK,PAK-JK,33.8441,73.7966,approximate,NA,NA,NA,NA,,,,FALSE,,,FALSE,,,,Neelum River,pre_construction
TZPWR2403000054332U000,TZPWR2403000054332,Atlas Power Limited power station - 1:11,Atlas Power Limited power station,operating,heavy-fuel-oil,internal-combustion-combined-cycle,214.5,MW,PAK,PAK-PB,31.67840506,74.08376769,exact,NA,NA,NA,NA,01/01/2009,,,FALSE,,,FALSE,,,,,operating
TZPWR2403000054332U001,TZPWR2403000054332,Atlas Power Limited power station - 12,Atlas Power Limited power station,operating,heavy-fuel-oil,steam-turbine,10,MW,PAK,PAK-PB,31.67840506,74.08376769,exact,NA,NA,NA,NA,01/01/2009,,,FALSE,,,FALSE,,,,,operating
TZPWR2403000054333U000,TZPWR2403000054333,Attock Cement solar farm,Attock Cement solar farm,operating,NA,photovoltaic-unspecified,21,MW,PAK,PAK-BA,25.1235,66.9184,exact,NA,NA,NA,NA,01/01/2022,,,FALSE,,,FALSE,,,,,operating
TZPWR2403000054334U000,TZPWR2403000054334,Attock Gen Limited power station (AGL) - 1:10,Attock Gen Limited power station (AGL),operating,heavy-fuel-oil,internal-combustion-combined-cycle,165,MW,PAK,PAK-PB,33.55633053,73.07325885,exact,NA,NA,NA,NA,01/01/2009,,,FALSE,,,FALSE,,,,,operating
TZPWR2403000054334U001,TZPWR2403000054334,Attock Gen Limited power station (AGL) - 11,Attock Gen Limited power station (AGL),operating,heavy-fuel-oil,steam-turbine,11.5,MW,PAK,PAK-PB,33.55633053,73.07325885,exact,NA,NA,NA,NA,01/01/2009,,,FALSE,,,FALSE,,,,,operating
TZPWR2403000054335U000,TZPWR2403000054335,Attock solar farm,Attock solar farm,inactive,NA,photovoltaic-unspecified,50,MW,PAK,PAK-SD,33.5691,72.635,approximate,NA,NA,NA,NA,,,,FALSE,,,FALSE,,,,,cancelled
TZPWR2403000054336U000,TZPWR2403000054336,Azad Pattan hydroelectric plant,Azad Pattan hydroelectric plant,committed,water,hydro-reservoir,701,MW,PAK,PAK-JK,33.7764,73.5633,exact,NA,NA,NA,NA,01/01/2027,,,FALSE,,,FALSE,,,,Jhelum River,pre_construction
TZPWR2403000054337U000,TZPWR2403000054337,Bahalwalnager (Asia Petroleum) solar farm,Bahalwalnager (Asia Petroleum) solar farm,inactive,NA,photovoltaic-unspecified,30,MW,PAK,PAK-PB,33.0282,72.0575,approximate,NA,NA,NA,NA,,,,FALSE,,,FALSE,,,,,shelved
TZPWR2403000054338U000,TZPWR2403000054338,Bahawalpur power station - 1,Bahawalpur power station,committed,agricultural-waste-solids,biomass,31,MW,PAK,PAK-PB,29.2923,71.5088,exact,NA,NA,NA,NA,01/01/2024,,,FALSE,,,FALSE,,,,,pre_construction
TZPWR2403000054339U000,TZPWR2403000054339,Balakot hydroelectric plant,Balakot hydroelectric plant,committed,water,hydro-run-of-river,300,MW,PAK,PAK-NW,34.5001,73.2501,approximate,NA,NA,NA,NA,01/01/2027,,,FALSE,,,FALSE,,,,Kunhar River,pre_construction
TZPWR2403000054340U000,TZPWR2403000054340,Balloki power station - 1,Balloki power station,operating,liquified-natural-gas,combined-cycle,1320,MW,PAK,PAK-PB,31.036966,73.926699,exact,NA,NA,NA,NA,01/01/2018,,,FALSE,,,FALSE,,,,,operating
TZPWR2403000054341U000,TZPWR2403000054341,Bhikki power station - 1,Bhikki power station,operating,liquified-natural-gas,combined-cycle,1180,MW,PAK,PAK-PB,31.603651,73.904604,exact,NA,NA,NA,NA,01/01/2018,,,FALSE,,,FALSE,,,,,operating
TZPWR2403000054342U000,TZPWR2403000054342,Bhit solar project,Bhit solar project,operating,NA,photovoltaic-unspecified,10,MWp/dc,PAK,PAK-SD,26.173,67.496,approximate,NA,NA,NA,NA,01/01/2019,,,FALSE,,,FALSE,,,,,operating
TZPWR2403000054343U000,TZPWR2403000054343,Bin Qasim Dongfang power station - Unit 1,Bin Qasim Dongfang power station,inactive,coal-unspecified,coal-unspecified,660,MW,PAK,PAK-SD,24.815006,67.363186,approximate,NA,NA,NA,NA,,,,FALSE,,,FALSE,,,,,cancelled
TZPWR2403000054343U001,TZPWR2403000054343,Bin Qasim Dongfang power station - Unit 2,Bin Qasim Dongfang power station,inactive,coal-unspecified,coal-unspecified,660,MW,PAK,PAK-SD,24.815006,67.363186,approximate,NA,NA,NA,NA,,,,FALSE,,,FALSE,,,,,cancelled
TZPWR2403000054344U000,TZPWR2403000054344,Bin Qasim power station - 1-1,Bin Qasim power station,operating,natural-gas,steam-turbine,210,MW,PAK,PAK-SD,24.785291,67.360261,exact,fuel-oil,NA,NA,NA,01/01/1983,,,FALSE,,,FALSE,,,,,operating
TZPWR2403000054344U001,TZPWR2403000054344,Bin Qasim power station - 1-2,Bin Qasim power station,operating,natural-gas,steam-turbine,210,MW,PAK,PAK-SD,24.785291,67.360261,exact,fuel-oil,NA,NA,NA,01/01/1984,,,FALSE,,,FALSE,,,,,operating
TZPWR2403000054344U002,TZPWR2403000054344,Bin Qasim power station - 1-3,Bin Qasim power station,operating,natural-gas,steam-turbine,210,MW,PAK,PAK-SD,24.785291,67.360261,exact,fuel-oil,NA,NA,NA,01/01/1989,,,FALSE,,,FALSE,,,,,operating
TZPWR2403000054344U003,TZPWR2403000054344,Bin Qasim power station - 1-4,Bin Qasim power station,operating,natural-gas,steam-turbine,210,MW,PAK,PAK-SD,24.785291,67.360261,exact,fuel-oil,NA,NA,NA,01/01/1990,,,FALSE,,,FALSE,,,,,operating
TZPWR2403000054344U004,TZPWR2403000054344,Bin Qasim power station - 1-5,Bin Qasim power station,operating,natural-gas,steam-turbine,210,MW,PAK,PAK-SD,24.785291,67.360261,exact,fuel-oil,NA,NA,NA,01/01/1991,,,FALSE,,,FALSE,,,,,operating
TZPWR2403000054344U005,TZPWR2403000054344,Bin Qasim power station - 1-6,Bin Qasim power station,operating,natural-gas,steam-turbine,210,MW,PAK,PAK-SD,24.785291,67.360261,exact,fuel-oil,NA,NA,NA,01/01/1997,,,FALSE,,,FALSE,,,,,operating
TZPWR2403000054344U006,TZPWR2403000054344,Bin Qasim power station - 2-1,Bin Qasim power station,operating,natural-gas,combined-cycle,572,MW,PAK,PAK-SD,24.785291,67.360261,exact,fuel-oil,NA,NA,NA,01/01/2012,,,FALSE,,,FALSE,,,,,operating
TZPWR2403000054344U007,TZPWR2403000054344,Bin Qasim power station - 3-1,Bin Qasim power station,operating,liquified-natural-gas,combined-cycle,450,MW,PAK,PAK-SD,24.785291,67.360261,exact,NA,NA,NA,NA,01/01/2022,,,FALSE,,,FALSE,,,,,operating
TZPWR2403000054344U008,TZPWR2403000054344,Bin Qasim power station - 3-2,Bin Qasim power station,operating,liquified-natural-gas,combined-cycle,450,MW,PAK,PAK-SD,24.785291,67.360261,exact,NA,NA,NA,NA,01/01/2022,,,FALSE,,,FALSE,,,,,operating
TZPWR2403000054344U009,TZPWR2403000054344,Bin Qasim power station - Phase 1 Repower Project Unit 3,Bin Qasim power station,inactive,coal-unspecified,coal-unspecified,210,MW,PAK,PAK-SD,24.784864,67.360305,exact,NA,NA,NA,NA,,,,FALSE,,,FALSE,,,,,cancelled
TZPWR2403000054344U010,TZPWR2403000054344,Bin Qasim power station - Phase 1 Repower Project Unit 4,Bin Qasim power station,inactive,coal-unspecified,coal-unspecified,210,MW,PAK,PAK-SD,24.784864,67.360305,exact,NA,NA,NA,NA,,,,FALSE,,,FALSE,,,,,cancelled
TZPWR2403000054345U000,TZPWR2403000054345,Bostan solar farm - 1,Bostan solar farm,committed,NA,photovoltaic-unspecified,50,MW,PAK,PAK-BA,30.5829,66.9966,approximate,NA,NA,NA,NA,,,,FALSE,,,FALSE,,,,,pre_construction
TZPWR2403000054345U001,TZPWR2403000054345,Bostan solar farm - 2,Bostan solar farm,committed,NA,photovoltaic-unspecified,50,MW,PAK,PAK-BA,30.5829,66.9966,approximate,NA,NA,NA,NA,,,,FALSE,,,FALSE,,,,,pre_construction
TZPWR2403000054346U000,TZPWR2403000054346,Bulleh Shah Paper Mill power station - 2R,Bulleh Shah Paper Mill power station,operating,agricultural-waste-solids,biomass,41,MW,PAK,PAK-PB,31.1303,74.3585,exact,NA,NA,NA,NA,01/01/2015,,,FALSE,,,FALSE,,,,,operating
TZPWR2403000054347U000,TZPWR2403000054347,Bunji hydroelectric plant,Bunji hydroelectric plant,committed,water,hydro-run-of-river,7100,MW,PAK,PAK-NA,36,75,approximate,NA,NA,NA,NA,,,,FALSE,,,FALSE,,,,Indus River,pre_construction
TZPWR2403000054348U000,TZPWR2403000054348,Burj Gharo Energy wind farm,Burj Gharo Energy wind farm,inactive,NA,wind-onshore,50,MW,PAK,PAK-SD,24.7439,67.5829,approximate,NA,NA,NA,NA,,,,FALSE,,,FALSE,,,,,shelved
TZPWR2403000054349U000,TZPWR2403000054349,Burj wind farm,Burj wind farm,inactive,NA,wind-onshore,14,MW,PAK,PAK-SD,24.7348,67.8176,approximate,NA,NA,NA,NA,,,,FALSE,,,FALSE,,,,,shelved
TZPWR2403000054350U000,TZPWR2403000054350,Cacho wind farm,Cacho wind farm,planned,NA,wind-onshore,50,MW,PAK,PAK-SD,25.0399,67.7755,exact,NA,NA,NA,NA,,,,FALSE,,,FALSE,,,,,announced
TZPWR2403000054351U000,TZPWR2403000054351,Chakothi Hattian hydroelectric plant,Chakothi Hattian hydroelectric plant,inactive,water,hydro-run-of-river,500,MW,PAK,PAK-PB,29.8333,70.5001,approximate,NA,NA,NA,NA,,,,FALSE,,,FALSE,,,,Jhelum River,inactive
TZPWR2403000054352U000,TZPWR2403000054352,Chakwal solar farm,Chakwal solar farm,planned,NA,photovoltaic-unspecified,50,MW,PAK,PAK-PB,32.9276,72.8066,approximate,NA,NA,NA,NA,,,,FALSE,,,FALSE,,,,,announced
TZPWR2403000054353U000,TZPWR2403000054353,Chashma hydroelectric plant,Chashma hydroelectric plant,operating,water,hydro-reservoir,184,MW,PAK,PAK-PB,32.4351,71.3699,exact,NA,NA,NA,NA,01/01/2001,,,FALSE,,,FALSE,,,,Indus River,operating
TZPWR2403000054354U000,TZPWR2403000054354,Chashma nuclear power plant - 1,Chashma nuclear power plant,operating,uranium,pressurized-water-reactor,325,MW,PAK,PAK-PB,32.392,71.4616,exact,NA,NA,NA,NA,01/01/2000,,,FALSE,,,FALSE,,,,,operating
TZPWR2403000054354U001,TZPWR2403000054354,Chashma nuclear power plant - 2,Chashma nuclear power plant,operating,uranium,pressurized-water-reactor,325,MW,PAK,PAK-PB,32.392,71.4616,exact,NA,NA,NA,NA,01/01/2011,,,FALSE,,,FALSE,,,,,operating
TZPWR2403000054354U002,TZPWR2403000054354,Chashma nuclear power plant - 3,Chashma nuclear power plant,operating,uranium,pressurized-water-reactor,340,MW,PAK,PAK-PB,32.392,71.4616,exact,NA,NA,NA,NA,01/01/2016,,,FALSE,,,FALSE,,,,,operating
TZPWR2403000054354U003,TZPWR2403000054354,Chashma nuclear power plant - 4,Chashma nuclear power plant,operating,uranium,pressurized-water-reactor,340,MW,PAK,PAK-PB,32.392,71.4616,exact,NA,NA,NA,NA,01/01/2017,,,FALSE,,,FALSE,,,,,operating
TZPWR2403000054354U004,TZPWR2403000054354,Chashma nuclear power plant - 5,Chashma nuclear power plant,committed,uranium,pressurized-water-reactor,1200,MW,PAK,PAK-PB,32.392,71.4616,exact,NA,NA,NA,NA,,,,FALSE,,,FALSE,,,,,pre_construction
TZPWR2403000054355U000,TZPWR2403000054355,Chaubara solar farm,Chaubara solar farm,operating,NA,photovoltaic-unspecified,100,MWp/dc,PAK,PAK-PB,30.8999,71.5605,exact,NA,NA,NA,NA,01/01/2022,,,FALSE,,,FALSE,,,,,operating
TZPWR2403000054356U000,TZPWR2403000054356,China Sunec wind farm,China Sunec wind farm,inactive,NA,wind-onshore,50,MW,PAK,PAK-SD,25.103,67.8266,exact,NA,NA,NA,NA,,,,FALSE,,,FALSE,,,,,cancelled
TZPWR2403000054357U000,TZPWR2403000054357,China Three Gorges First wind farm - 1,China Three Gorges First wind farm,operating,NA,wind-onshore,50,MW,PAK,PAK-SD,25.0801,67.9414,exact,NA,NA,NA,NA,01/01/2014,,,FALSE,,,FALSE,,,,,operating
TZPWR2403000054358U000,TZPWR2403000054358,China Three Gorges Second wind farm - 2,China Three Gorges Second wind farm,operating,NA,wind-onshore,50,MW,PAK,PAK-SD,25.1177,67.9175,exact,NA,NA,NA,NA,01/01/2018,,,FALSE,,,FALSE,,,,,operating
TZPWR2403000054359U000,TZPWR2403000054359,China Three Gorges Third wind farm - 3,China Three Gorges Third wind farm,operating,NA,wind-onshore,50,MW,PAK,PAK-SD,25.1286,67.9232,exact,NA,NA,NA,NA,01/01/2018,,,FALSE,,,FALSE,,,,,operating
TZPWR2403000054360U000,TZPWR2403000054360,Chiniot power station - 1,Chiniot power station,operating,agricultural-waste-solids,biomass,30,MW,PAK,PAK-PB,31.6116,72.7607,exact,NA,NA,NA,NA,01/01/2015,,,FALSE,,,FALSE,,,,,operating
TZPWR2403000054360U001,TZPWR2403000054360,Chiniot power station - 2,Chiniot power station,operating,agricultural-waste-solids,biomass,30,MW,PAK,PAK-PB,31.6116,72.7607,exact,NA,NA,NA,NA,01/01/2015,,,FALSE,,,FALSE,,,,,operating
TZPWR2403000054361U000,TZPWR2403000054361,Chishtian solar farm,Chishtian solar farm,committed,NA,photovoltaic-unspecified,100,MW,PAK,PAK-PB,29.746,72.8315,approximate,NA,NA,NA,NA,01/01/2024,,,FALSE,,,FALSE,,,,,pre_construction
TZPWR2403000054362U000,TZPWR2403000054362,Cholistan solar farm,Cholistan solar farm,inactive,NA,photovoltaic-unspecified,50,MW,PAK,PAK-PB,29.3148,71.8301,approximate,NA,NA,NA,NA,,,,FALSE,,,FALSE,,,,,shelved
TZPWR2403000054363U000,TZPWR2403000054363,Dadu solar farm (Pakistan) - 1,Dadu solar farm (Pakistan),planned,NA,photovoltaic-unspecified,20,MW,PAK,PAK-SD,26.6749,67.9868,approximate,NA,NA,NA,NA,,,,FALSE,,,FALSE,,,,,announced
TZPWR2403000054363U001,TZPWR2403000054363,Dadu solar farm (Pakistan) - 2,Dadu solar farm (Pakistan),planned,NA,photovoltaic-unspecified,20,MW,PAK,PAK-SD,26.6749,67.9868,approximate,NA,NA,NA,NA,,,,FALSE,,,FALSE,,,,,announced
TZPWR2403000054364U000,TZPWR2403000054364,Daraband power station - 1,Daraband power station,inactive,natural-gas,combined-cycle,225,MW,PAK,PAK-NW,31.74401954,70.33478251,approximate,NA,NA,NA,NA,,,,FALSE,,,FALSE,,,,,cancelled
TZPWR2403000054365U000,TZPWR2403000054365,Dasu hydroelectric plant,Dasu hydroelectric plant,committed,water,hydro-run-of-river,4320,MW,PAK,PAK-NW,35.3185,73.1948,exact,NA,NA,NA,NA,01/01/2023,,,FALSE,,,FALSE,,,,Indus River,under_construction
TZPWR2403000054366U000,TZPWR2403000054366,Dera Ghazi Khan Cement power station - --,Dera Ghazi Khan Cement power station,operating,coal-unspecified,unspecified-cofiring,30,MW,PAK,PAK-PB,30.33167,70.5394,exact,municipal-and-industrial-wastes,NA,NA,NA,01/01/2016,,,TRUE,industrial,cement/building,FALSE,,,,,operating
TZPWR2403000054367U000,TZPWR2403000054367,Diamer Basha hydroelectric plant,Diamer Basha hydroelectric plant,committed,water,hydro-reservoir,4500,MW,PAK,PAK-NA,35.5223,73.743,exact,NA,NA,NA,NA,01/01/2029,,,FALSE,,,FALSE,,,,Indus River,under_construction
TZPWR2403000054368U000,TZPWR2403000054368,Din Energy wind farm,Din Energy wind farm,operating,NA,wind-onshore,50,MW,PAK,PAK-SD,25.0857,67.7793,approximate,NA,NA,NA,NA,01/01/2022,,,FALSE,,,FALSE,,,,,operating
TZPWR2403000054369U000,TZPWR2403000054369,Din Garh solar farm,Din Garh solar farm,inactive,NA,photovoltaic-unspecified,50,MWp/dc,PAK,PAK-PB,29.115,72.265,approximate,NA,NA,NA,NA,,,,FALSE,,,FALSE,,,,,cancelled
TZPWR2403000054370U000,TZPWR2403000054370,Duber Khwar hydroelectric plant,Duber Khwar hydroelectric plant,operating,water,hydro-reservoir,130,MW,PAK,PAK-NW,35.1195,72.9276,exact,NA,NA,NA,NA,01/01/2013,,,FALSE,,,FALSE,,,,Duber Khwar River,operating
TZPWR2403000054371U000,TZPWR2403000054371,Dudhnial Dam hydroelectric plant,Dudhnial Dam hydroelectric plant,inactive,water,hydro-reservoir,960,MW,PAK,PAK-JK,34.6805,73.9658,approximate,NA,NA,NA,NA,,,,FALSE,,,FALSE,,,,Neelum River,shelved
TZPWR2403000054372U000,TZPWR2403000054372,Engro power station - 1,Engro power station,operating,natural-gas,combined-cycle,227,MW,PAK,PAK-SD,28.02607,69.364931,exact,diesel,NA,NA,NA,01/01/2010,,,FALSE,,,FALSE,,,,,operating
TZPWR2403000054373U000,TZPWR2403000054373,FFC Energy wind farm,FFC Energy wind farm,operating,NA,wind-onshore,50,MW,PAK,PAK-SD,25.0647,67.995,exact,NA,NA,NA,NA,01/01/2013,,,FALSE,,,FALSE,,,,,operating
TZPWR2403000054374U000,TZPWR2403000054374,Faisalabad FIEDMC power station - Unit 1,Faisalabad FIEDMC power station,inactive,coal-unspecified,subcritical,135,MW,PAK,PAK-PB,31.429167,73.078889,approximate,NA,NA,NA,NA,,,,TRUE,industrial,textiles,FALSE,,,,,cancelled
TZPWR2403000054374U001,TZPWR2403000054374,Faisalabad FIEDMC power station - Unit 2,Faisalabad FIEDMC power station,inactive,coal-unspecified,subcritical,135,MW,PAK,PAK-PB,31.429167,73.078889,approximate,NA,NA,NA,NA,,,,TRUE,industrial,textiles,FALSE,,,,,cancelled
TZPWR2403000054375U000,TZPWR2403000054375,Faisalabad Sitara Chemical power plant - Unit 1,Faisalabad Sitara Chemical power plant,operating,coal-unspecified,circulating-fluidized-bed,40,MW,PAK,PAK-PB,31.522924,73.388223,exact,NA,NA,NA,NA,01/01/2016,,,TRUE,non_industrial,chemicals,FALSE,,,,,operating
TZPWR2403000054375U001,TZPWR2403000054375,Faisalabad Sitara Chemical power plant - Unit 2,Faisalabad Sitara Chemical power plant,committed,coal-unspecified,coal-unspecified,40,MW,PAK,PAK-PB,31.522924,73.388223,exact,NA,NA,NA,NA,01/01/2024,,,TRUE,non_industrial,chemicals,FALSE,,,,,under_construction
TZPWR2403000054376U000,TZPWR2403000054376,Faisalabad power station - Unit 1,Faisalabad power station,inactive,coal-unspecified,subcritical,55,MW,PAK,PAK-PB,31.429167,73.078889,approximate,NA,NA,NA,NA,,,,FALSE,,,FALSE,,,,,cancelled
TZPWR2403000054376U001,TZPWR2403000054376,Faisalabad power station - Unit 2,Faisalabad power station,inactive,coal-unspecified,subcritical,55,MW,PAK,PAK-PB,31.429167,73.078889,approximate,NA,NA,NA,NA,,,,FALSE,,,FALSE,,,,,cancelled
TZPWR2403000054377U000,TZPWR2403000054377,Fauji Fertilizer power station - --,Fauji Fertilizer power station,operating,coal-unspecified,circulating-fluidized-bed,118,MW,PAK,PAK-SD,24.83309,67.41962,exact,NA,NA,NA,NA,01/01/2017,,,TRUE,non_industrial,chemicals,FALSE,,,,,operating
TZPWR2403000054378U000,TZPWR2403000054378,Fauji Kabirwala power station - 1,Fauji Kabirwala power station,operating,natural-gas,combined-cycle,170,MW,PAK,PAK-PB,30.5234443,71.9548461,exact,diesel,NA,NA,NA,01/01/1999,,,FALSE,,,FALSE,,,,,operating
TZPWR2403000054379U000,TZPWR2403000054379,Finergy wind farm,Finergy wind farm,inactive,NA,wind-onshore,50,MW,PAK,PAK-SD,25.1691,67.7886,approximate,NA,NA,NA,NA,,,,FALSE,,,FALSE,,,,,cancelled
TZPWR2403000054380U000,TZPWR2403000054380,Foundation Wind Energy wind farm - 1,Foundation Wind Energy wind farm,operating,NA,wind-onshore,50,MW,PAK,PAK-SD,24.6098,67.4001,exact,NA,NA,NA,NA,01/01/2015,,,FALSE,,,FALSE,,,,,operating
TZPWR2403000054380U001,TZPWR2403000054380,Foundation Wind Energy wind farm - 2,Foundation Wind Energy wind farm,operating,NA,wind-onshore,50,MW,PAK,PAK-SD,24.574,67.4655,exact,NA,NA,NA,NA,01/01/2014,,,FALSE,,,FALSE,,,,,operating
TZPWR2403000054381U000,TZPWR2403000054381,Foundation power station - 1,Foundation power station,operating,natural-gas,combined-cycle,185,MW,PAK,PAK-SD,27.980482,69.673621,exact,NA,NA,NA,NA,01/01/2011,,,FALSE,,,FALSE,,,,,operating
TZPWR2403000054382U000,TZPWR2403000054382,GTPS Faisalabad power station - 1-1,GTPS Faisalabad power station,operating,natural-gas,combined-cycle,144,MW,PAK,PAK-PB,31.444352,73.133493,exact,diesel,NA,NA,NA,01/01/1944,,,FALSE,,,FALSE,,,,,operating
TZPWR2403000054382U001,TZPWR2403000054382,GTPS Faisalabad power station - 1-2,GTPS Faisalabad power station,inactive,natural-gas,gas-turbine,100,MW,PAK,PAK-PB,31.444352,73.133493,exact,diesel,NA,NA,NA,01/01/1975,,,FALSE,,,FALSE,,,,,mothballed
TZPWR2403000054383U000,TZPWR2403000054383,Gabral Kalam hydroelectric plant,Gabral Kalam hydroelectric plant,committed,water,hydro-run-of-river,88,MW,PAK,PAK-NW,35.4908,72.5802,approximate,NA,NA,NA,NA,01/01/2025,,,FALSE,,,FALSE,,,,Gabral River,pre_construction
TZPWR2403000054384U000,TZPWR2403000054384,Gadani Power Park - Unit 1,Gadani Power Park,inactive,coal-unspecified,coal-unspecified,660,MW,PAK,PAK-BA,25.119444,66.731944,approximate,NA,NA,NA,NA,,,,FALSE,,,FALSE,,,,,cancelled
TZPWR2403000054384U001,TZPWR2403000054384,Gadani Power Park - Unit 2,Gadani Power Park,inactive,coal-unspecified,coal-unspecified,660,MW,PAK,PAK-BA,25.119444,66.731944,approximate,NA,NA,NA,NA,,,,FALSE,,,FALSE,,,,,cancelled
TZPWR2403000054384U002,TZPWR2403000054384,Gadani Power Park - Unit 3,Gadani Power Park,inactive,coal-unspecified,coal-unspecified,660,MW,PAK,PAK-BA,25.119444,66.731944,approximate,NA,NA,NA,NA,,,,FALSE,,,FALSE,,,,,cancelled
TZPWR2403000054384U003,TZPWR2403000054384,Gadani Power Park - Unit 4,Gadani Power Park,inactive,coal-unspecified,coal-unspecified,660,MW,PAK,PAK-BA,25.119444,66.731944,approximate,NA,NA,NA,NA,,,,FALSE,,,FALSE,,,,,cancelled
TZPWR2403000054384U004,TZPWR2403000054384,Gadani Power Park - Unit 5,Gadani Power Park,inactive,coal-unspecified,coal-unspecified,660,MW,PAK,PAK-BA,25.119444,66.731944,approximate,NA,NA,NA,NA,,,,FALSE,,,FALSE,,,,,cancelled
TZPWR2403000054384U005,TZPWR2403000054384,Gadani Power Park - Unit 6,Gadani Power Park,inactive,coal-unspecified,coal-unspecified,660,MW,PAK,PAK-BA,25.119444,66.731944,approximate,NA,NA,NA,NA,,,,FALSE,,,FALSE,,,,,cancelled
TZPWR2403000054384U006,TZPWR2403000054384,Gadani Power Park - Unit 7,Gadani Power Park,inactive,coal-unspecified,coal-unspecified,660,MW,PAK,PAK-BA,25.119444,66.731944,approximate,NA,NA,NA,NA,,,,FALSE,,,FALSE,,,,,cancelled
TZPWR2403000054384U007,TZPWR2403000054384,Gadani Power Park - Unit 8,Gadani Power Park,inactive,coal-unspecified,coal-unspecified,660,MW,PAK,PAK-BA,25.119444,66.731944,approximate,NA,NA,NA,NA,,,,FALSE,,,FALSE,,,,,cancelled
TZPWR2403000054384U008,TZPWR2403000054384,Gadani Power Park - Unit 9,Gadani Power Park,inactive,coal-unspecified,coal-unspecified,660,MW,PAK,PAK-BA,25.119444,66.731944,approximate,NA,NA,NA,NA,,,,FALSE,,,FALSE,,,,,cancelled
TZPWR2403000054384U009,TZPWR2403000054384,Gadani Power Park - Unit 10,Gadani Power Park,inactive,coal-unspecified,coal-unspecified,660,MW,PAK,PAK-BA,25.119444,66.731944,approximate,NA,NA,NA,NA,,,,FALSE,,,FALSE,,,,,cancelled
TZPWR2403000054385U000,TZPWR2403000054385,Gharo Mirpur Sakro solar farm,Gharo Mirpur Sakro solar farm,operating,NA,photovoltaic-unspecified,50,MWp/dc,PAK,PAK-SD,24.7109,67.5593,exact,NA,NA,NA,NA,01/01/2019,,,FALSE,,,FALSE,,,,,operating
TZPWR2403000054386U000,TZPWR2403000054386,Ghazi Barotha hydroelectric plant,Ghazi Barotha hydroelectric plant,operating,water,hydro-run-of-river,1450,MW,PAK,PAK-PB,33.7809,72.2562,exact,NA,NA,NA,NA,01/01/2003,,,FALSE,,,FALSE,,,,Indus River,operating
TZPWR2403000054387U000,TZPWR2403000054387,Golen Gol hydroelectric plant,Golen Gol hydroelectric plant,operating,water,hydro-reservoir,108,MW,PAK,PAK-NW,35.9505,71.9582,exact,NA,NA,NA,NA,01/01/2018,,,FALSE,,,FALSE,,,,Golen Gol River,operating
TZPWR2403000054388U000,TZPWR2403000054388,Gorkin Matiltan hydroelectric plant,Gorkin Matiltan hydroelectric plant,committed,water,hydro-run-of-river,84,MW,PAK,PAK-NW,35.4899,72.5802,approximate,NA,NA,NA,NA,01/01/2023,,,FALSE,,,FALSE,,,,Ushu River,under_construction
TZPWR2403000054389U000,TZPWR2403000054389,Grange Holdings power station - --,Grange Holdings power station,inactive,coal-unspecified,coal-unspecified,163,MW,PAK,PAK-PB,30.285195,73.062344,approximate,NA,NA,NA,NA,,,,FALSE,,,FALSE,,,,,cancelled
TZPWR2403000054390U000,TZPWR2403000054390,Guddu power station - 1,Guddu power station,inactive,natural-gas,steam-turbine,110,MW,PAK,PAK-SD,28.424884,69.700893,exact,NA,NA,NA,NA,01/01/1974,,,FALSE,,,FALSE,,,,,mothballed
TZPWR2403000054390U001,TZPWR2403000054390,Guddu power station - 2,Guddu power station,inactive,natural-gas,steam-turbine,110,MW,PAK,PAK-SD,28.424884,69.700893,exact,NA,NA,NA,NA,01/01/1974,,,FALSE,,,FALSE,,,,,mothballed
TZPWR2403000054390U002,TZPWR2403000054390,Guddu power station - 3,Guddu power station,inactive,natural-gas,steam-turbine,210,MW,PAK,PAK-SD,28.424884,69.700893,exact,fuel-oil,NA,NA,NA,01/01/1980,,,FALSE,,,FALSE,,,,,mothballed
TZPWR2403000054390U003,TZPWR2403000054390,Guddu power station - 4,Guddu power station,inactive,natural-gas,steam-turbine,210,MW,PAK,PAK-SD,28.424884,69.700893,exact,fuel-oil,NA,NA,NA,01/01/1985,,,FALSE,,,FALSE,,,,,mothballed
TZPWR2403000054390U004,TZPWR2403000054390,Guddu power station - 5-6,Guddu power station,operating,natural-gas,combined-cycle,200,MW,PAK,PAK-SD,28.424884,69.700893,exact,NA,NA,NA,NA,01/01/1987,,,FALSE,,,FALSE,,,,,operating
TZPWR2403000054390U005,TZPWR2403000054390,Guddu power station - 7-10,Guddu power station,operating,natural-gas,gas-turbine,400,MW,PAK,PAK-SD,28.424884,69.700893,exact,NA,NA,NA,NA,01/01/1987,,,FALSE,,,FALSE,,,,,operating
TZPWR2403000054390U006,TZPWR2403000054390,Guddu power station - 11-12,Guddu power station,operating,natural-gas,gas-turbine,272,MW,PAK,PAK-SD,28.424884,69.700893,exact,NA,NA,NA,NA,01/01/1992,,,FALSE,,,FALSE,,,,,operating
TZPWR2403000054390U007,TZPWR2403000054390,Guddu power station - 13,Guddu power station,operating,natural-gas,combined-cycle,143,MW,PAK,PAK-SD,28.424884,69.700893,exact,NA,NA,NA,NA,01/01/1992,,,FALSE,,,FALSE,,,,,operating
TZPWR2403000054390U008,TZPWR2403000054390,Guddu power station - 14-16,Guddu power station,operating,natural-gas,combined-cycle,747,MW,PAK,PAK-SD,28.424884,69.700893,exact,diesel,NA,NA,NA,01/01/2014,,,FALSE,,,FALSE,,,,,operating
TZPWR2403000054391U000,TZPWR2403000054391,Gujrat power station - Unit 1,Gujrat power station,inactive,coal-unspecified,coal-unspecified,55,MW,PAK,PAK-PB,32.573797,74.078939,approximate,NA,NA,NA,NA,,,,FALSE,,,FALSE,,,,,cancelled
TZPWR2403000054391U001,TZPWR2403000054391,Gujrat power station - Unit 2,Gujrat power station,inactive,coal-unspecified,coal-unspecified,55,MW,PAK,PAK-PB,32.573797,74.078939,approximate,NA,NA,NA,NA,,,,FALSE,,,FALSE,,,,,cancelled
TZPWR2403000054392U000,TZPWR2403000054392,Gul Ahmed (DL Energy) wind farm,Gul Ahmed (DL Energy) wind farm,operating,NA,wind-onshore,50,MW,PAK,PAK-SD,25.1531,67.9684,exact,NA,NA,NA,NA,01/01/2016,,,FALSE,,,FALSE,,,,,operating
TZPWR2403000054393U000,TZPWR2403000054393,Gul Ahmed (Hydro China) wind farm,Gul Ahmed (Hydro China) wind farm,operating,NA,wind-onshore,50,MW,PAK,PAK-SD,25.153,67.9684,exact,NA,NA,NA,NA,01/01/2022,,,FALSE,,,FALSE,,,,,operating
TZPWR2403000054394U000,TZPWR2403000054394,Gul Ahmed Power Project power plant - 1:9,Gul Ahmed Power Project power plant,operating,heavy-fuel-oil,internal-combustion-combined-cycle,135.9,MW,PAK,PAK-SD,24.85061298,67.14633224,exact,NA,NA,NA,NA,01/01/1997,,,FALSE,,,FALSE,,,,,operating
TZPWR2403000054395U000,TZPWR2403000054395,Gulpur hydroelectric plant,Gulpur hydroelectric plant,operating,water,hydro-run-of-river,102,MW,PAK,PAK-JK,33.4544,73.8633,exact,NA,NA,NA,NA,01/01/2020,,,FALSE,,,FALSE,,,,Poonch River,operating
TZPWR2403000054396U000,TZPWR2403000054396,Gwadar (CPEC) solar farm,Gwadar (CPEC) solar farm,planned,NA,photovoltaic-unspecified,300,MW,PAK,PAK-BA,25.1893,64.6054,approximate,NA,NA,NA,NA,,,,FALSE,,,FALSE,,,,,announced
TZPWR2403000054397U000,TZPWR2403000054397,Gwadar (ib voght) solar farm,Gwadar (ib voght) solar farm,planned,NA,photovoltaic-unspecified,62.2,MW,PAK,PAK-BA,25.1893,64.6054,approximate,NA,NA,NA,NA,01/01/2024,,,FALSE,,,FALSE,,,,,announced
TZPWR2403000054398U000,TZPWR2403000054398,Gwadar power station - Unit 1,Gwadar power station,committed,coal-unspecified,subcritical,150,MW,PAK,PAK-BA,25.2052,62.3519,approximate,NA,NA,NA,NA,01/01/2025,,,FALSE,,,FALSE,,,,,permitted
TZPWR2403000054398U001,TZPWR2403000054398,Gwadar power station - Unit 2,Gwadar power station,committed,coal-unspecified,subcritical,150,MW,PAK,PAK-BA,25.2052,62.3519,approximate,NA,NA,NA,NA,01/01/2025,,,FALSE,,,FALSE,,,,,permitted
TZPWR2403000054399U000,TZPWR2403000054399,HND Energy wind farm,HND Energy wind farm,committed,NA,wind-onshore,50,MW,PAK,PAK-BA,30.0488,69.8111,approximate,NA,NA,NA,NA,01/01/2023,,,FALSE,,,FALSE,,,,,under_construction
TZPWR2403000054400U000,TZPWR2403000054400,Habibullah Coastal power station - 1,Habibullah Coastal power station,inactive,natural-gas,combined-cycle,140,MW,PAK,PAK-BA,30.2699362,66.9649792,exact,diesel,NA,NA,NA,01/01/1999,,,FALSE,,,FALSE,,,,,mothballed
TZPWR2403000054401U000,TZPWR2403000054401,Halmore power station - 1,Halmore power station,operating,natural-gas,combined-cycle,225,MW,PAK,PAK-PB,30.2777577,66.9726396,exact,diesel,NA,NA,NA,01/01/2011,,,FALSE,,,FALSE,,,,,operating
TZPWR2403000054402U000,TZPWR2403000054402,Haveli Bahadur Shah (HBS) power station - 1,Haveli Bahadur Shah (HBS) power station,operating,liquified-natural-gas,combined-cycle,1230,MW,PAK,PAK-PB,31.127192,72.189402,exact,NA,NA,NA,NA,01/01/2018,,,FALSE,,,FALSE,,,,,operating
TZPWR2403000054403U000,TZPWR2403000054403,Hawa Energy wind farm,Hawa Energy wind farm,operating,NA,wind-onshore,50,MW,PAK,PAK-SD,25.1428,68.0551,exact,NA,NA,NA,NA,01/01/2018,,,FALSE,,,FALSE,,,,,operating
TZPWR2403000054404U000,TZPWR2403000054404,Helios Power wind farm,Helios Power wind farm,committed,NA,wind-onshore,50,MW,PAK,PAK-BA,30.0488,69.8111,approximate,NA,NA,NA,NA,01/01/2023,,,FALSE,,,FALSE,,,,,under_construction
TZPWR2403000054405U000,TZPWR2403000054405,Hub Cement power station - --,Hub Cement power station,operating,coal-unspecified,unspecified-cofiring,30,MW,PAK,PAK-BA,25.15589,66.78361,exact,municipal-and-industrial-wastes,NA,NA,NA,01/01/2021,,,TRUE,industrial,cement/building,FALSE,,,,,operating
TZPWR2403000054406U000,TZPWR2403000054406,Hub power plant - 1,Hub power plant,operating,heavy-fuel-oil,steam-turbine,323,MW,PAK,PAK-BA,24.90624657,66.69461507,exact,NA,NA,NA,NA,01/01/1997,,,FALSE,,,FALSE,,,,,operating
TZPWR2403000054406U001,TZPWR2403000054406,Hub power plant - 2,Hub power plant,operating,heavy-fuel-oil,steam-turbine,323,MW,PAK,PAK-BA,24.90624657,66.69461507,exact,NA,NA,NA,NA,01/01/1997,,,FALSE,,,FALSE,,,,,operating
TZPWR2403000054406U002,TZPWR2403000054406,Hub power plant - 3,Hub power plant,operating,heavy-fuel-oil,steam-turbine,323,MW,PAK,PAK-BA,24.90624657,66.69461507,exact,NA,NA,NA,NA,01/01/1997,,,FALSE,,,FALSE,,,,,operating
TZPWR2403000054406U003,TZPWR2403000054406,Hub power plant - 4,Hub power plant,operating,heavy-fuel-oil,steam-turbine,323,MW,PAK,PAK-BA,24.90624657,66.69461507,exact,NA,NA,NA,NA,01/01/1997,,,FALSE,,,FALSE,,,,,operating
TZPWR2403000054407U000,TZPWR2403000054407,Hubco power station - Unit 1,Hubco power station,operating,coal-unspecified,supercritical,660,MW,PAK,PAK-BA,24.914675,66.68876,exact,NA,NA,NA,NA,01/01/2019,,,FALSE,,,FALSE,,,,,operating
TZPWR2403000054407U001,TZPWR2403000054407,Hubco power station - Unit 2,Hubco power station,operating,coal-unspecified,supercritical,660,MW,PAK,PAK-BA,24.914675,66.68876,exact,NA,NA,NA,NA,01/01/2019,,,FALSE,,,FALSE,,,,,operating
TZPWR2403000054408U000,TZPWR2403000054408,Hunza power station - 1,Hunza power station,committed,agricultural-waste-solids,biomass,49,MW,PAK,PAK-PB,31.1163,72.0555,exact,NA,NA,NA,NA,01/01/2024,,,FALSE,,,FALSE,,,,,pre_construction
TZPWR2403000054409U000,TZPWR2403000054409,Hydrochina Dawood wind farm,Hydrochina Dawood wind farm,operating,NA,wind-onshore,50,MW,PAK,PAK-SD,24.6719,67.4953,exact,NA,NA,NA,NA,01/01/2017,,,FALSE,,,FALSE,,,,,operating
TZPWR2403000054410U000,TZPWR2403000054410,Indus Sugar Mill power station - 1,Indus Sugar Mill power station,committed,agricultural-waste-solids,biomass,30,MW,PAK,PAK-PB,29.0135,70.3333,exact,NA,NA,NA,NA,01/01/2024,,,FALSE,,,FALSE,,,,,pre_construction
TZPWR2403000054411U000,TZPWR2403000054411,Indus Wind Energy Farm,Indus Wind Energy Farm,operating,NA,wind-onshore,50,MW,PAK,PAK-SD,24.9358,67.713,exact,NA,NA,NA,NA,01/01/2022,,,FALSE,,,FALSE,,,,,operating
TZPWR2403000054412U000,TZPWR2403000054412,Iran-Pak wind farm,Iran-Pak wind farm,inactive,NA,wind-onshore,50,MW,PAK,PAK-SD,25.0139,67.9836,approximate,NA,NA,NA,NA,,,,FALSE,,,FALSE,,,,,shelved
TZPWR2403000054413U000,TZPWR2403000054413,Ittefaq Sugar Mills power station - 1,Ittefaq Sugar Mills power station,committed,agricultural-waste-solids,biomass,31,MW,PAK,PAK-PB,30.5253,73.2013,exact,NA,NA,NA,NA,01/01/2024,,,FALSE,,,FALSE,,,,,pre_construction
TZPWR2403000054414U000,TZPWR2403000054414,Jamshoro power station - 1-1,Jamshoro power station,operating,fuel-oil,steam-turbine,250,MW,PAK,PAK-SD,25.472717,68.265811,exact,NA,NA,NA,NA,01/01/1990,,,FALSE,,,FALSE,,,,,operating
TZPWR2403000054414U001,TZPWR2403000054414,Jamshoro power station - 2-1,Jamshoro power station,operating,natural-gas,steam-turbine,200,MW,PAK,PAK-SD,25.472717,68.265811,exact,fuel-oil,NA,NA,NA,01/01/1989,,,FALSE,,,FALSE,,,,,operating
TZPWR2403000054414U002,TZPWR2403000054414,Jamshoro power station - 2-2,Jamshoro power station,operating,natural-gas,steam-turbine,200,MW,PAK,PAK-SD,25.472717,68.265811,exact,fuel-oil,NA,NA,NA,01/01/1990,,,FALSE,,,FALSE,,,,,operating
TZPWR2403000054414U003,TZPWR2403000054414,Jamshoro power station - 2-3,Jamshoro power station,operating,natural-gas,steam-turbine,200,MW,PAK,PAK-SD,25.472717,68.265811,exact,fuel-oil,NA,NA,NA,01/01/1991,,,FALSE,,,FALSE,,,,,operating
TZPWR2403000054414U004,TZPWR2403000054414,Jamshoro power station - Unit 5,Jamshoro power station,committed,sub-bituminous,supercritical,660,MW,PAK,PAK-SD,25.472222,68.266111,exact,NA,NA,NA,NA,01/01/2023,,,FALSE,,,FALSE,,,,,under_construction
TZPWR2403000054414U005,TZPWR2403000054414,Jamshoro power station - Unit 6,Jamshoro power station,committed,lignite,supercritical,660,MW,PAK,PAK-SD,25.472222,68.266111,exact,NA,NA,NA,NA,01/01/2029,,,FALSE,,,FALSE,,,,,permitted
TZPWR2403000054415U000,TZPWR2403000054415,Japan Power Generation power plant - 1:24,Japan Power Generation power plant,inactive,heavy-fuel-oil,internal-combustion-combined-cycle,120,MW,PAK,PAK-PB,31.32576324,74.26228341,exact,NA,NA,NA,NA,01/01/2000,01/01/2017,,FALSE,,,FALSE,,,,,retired
TZPWR2403000054416U000,TZPWR2403000054416,Javed solar farm,Javed solar farm,committed,NA,photovoltaic-unspecified,49.5,MWp/dc,PAK,PAK-TA,34.6823,71.4284,approximate,NA,NA,NA,NA,01/01/2024,,,FALSE,,,FALSE,,,,,pre_construction
TZPWR2403000054417U000,TZPWR2403000054417,Jhang Bahtar solar project,Jhang Bahtar solar project,operating,NA,photovoltaic-unspecified,12.5,MWp/dc,PAK,PAK-PB,33.691,72.723,approximate,NA,NA,NA,NA,01/01/2019,,,FALSE,,,FALSE,,,,,operating
TZPWR2403000054418U000,TZPWR2403000054418,Jhang Nishat Chunian power station - Unit 1,Jhang Nishat Chunian power station,inactive,coal-unspecified,coal-unspecified,660,MW,PAK,PAK-PB,30.583333,71.65,approximate,NA,NA,NA,NA,,,,FALSE,,,FALSE,,,,,cancelled
TZPWR2403000054419U000,TZPWR2403000054419,Jhang Nishat Mills power station - Unit 1,Jhang Nishat Mills power station,inactive,coal-unspecified,coal-unspecified,660,MW,PAK,PAK-PB,30.583333,71.65,approximate,NA,NA,NA,NA,,,,FALSE,,,FALSE,,,,,cancelled
TZPWR2403000054420U000,TZPWR2403000054420,Jhang solar farm,Jhang solar farm,committed,NA,photovoltaic-unspecified,600,MW,PAK,PAK-PB,31.1657,72.0962,approximate,NA,NA,NA,NA,,,,FALSE,,,FALSE,,,,,pre_construction
TZPWR2403000054421U000,TZPWR2403000054421,Jhimpir Power (Burj Capital) wind farm,Jhimpir Power (Burj Capital) wind farm,operating,NA,wind-onshore,50,MW,PAK,PAK-SD,25.1384,68.0452,exact,NA,NA,NA,NA,01/01/2018,,,FALSE,,,FALSE,,,,,operating
TZPWR2403000054422U000,TZPWR2403000054422,Jinnah hydroelectric plant,Jinnah hydroelectric plant,operating,water,hydro-run-of-river,96,MW,PAK,PAK-PB,32.9271,71.5036,exact,NA,NA,NA,NA,01/01/2013,,,FALSE,,,FALSE,,,,Indus River,operating
TZPWR2403000054423U000,TZPWR2403000054423,KAPCO power station - 1,KAPCO power station,operating,natural-gas,combined-cycle,533,MW,PAK,PAK-PB,30.4458411,70.982274,exact,fuel-oil,diesel,NA,NA,01/01/1996,,,FALSE,,,FALSE,,,,,operating
TZPWR2403000054423U001,TZPWR2403000054423,KAPCO power station - 2,KAPCO power station,operating,natural-gas,combined-cycle,533,MW,PAK,PAK-PB,30.4458411,70.982274,exact,fuel-oil,diesel,NA,NA,01/01/1996,,,FALSE,,,FALSE,,,,,operating
TZPWR2403000054423U002,TZPWR2403000054423,KAPCO power station - 3,KAPCO power station,operating,natural-gas,combined-cycle,534,MW,PAK,PAK-PB,30.4458411,70.982274,exact,fuel-oil,diesel,NA,NA,01/01/1996,,,FALSE,,,FALSE,,,,,operating
TZPWR2403000054424U000,TZPWR2403000054424,Kaigah hydroelectric plant,Kaigah hydroelectric plant,committed,water,hydro-reservoir,548,MW,PAK,PAK-NW,34.5001,73.2501,approximate,NA,NA,NA,NA,,,,FALSE,,,FALSE,,,,Kandiah River,pre_construction
TZPWR2403000054425U000,TZPWR2403000054425,Kalabagh hydroelectric plant,Kalabagh hydroelectric plant,committed,water,hydro-reservoir,3600,MW,PAK,PAK-PB,31.7801,72.2914,approximate,NA,NA,NA,NA,,,,FALSE,,,FALSE,,,,Indus River,pre_construction
TZPWR2403000054426U000,TZPWR2403000054426,Kalam-Asrit hydroelectric plant,Kalam-Asrit hydroelectric plant,committed,water,hydro-run-of-river,197,MW,PAK,PAK-NW,34.931,72.4174,approximate,NA,NA,NA,NA,,,,FALSE,,,FALSE,,,,Swat River,pre_construction
TZPWR2403000054427U000,TZPWR2403000054427,Kapco power station - --,Kapco power station,inactive,coal-unspecified,coal-unspecified,660,MW,PAK,PAK-PB,31.715,73.985,approximate,NA,NA,NA,NA,,,,FALSE,,,FALSE,,,,,cancelled
TZPWR2403000054428U000,TZPWR2403000054428,Karachi nuclear power plant - 1,Karachi nuclear power plant,inactive,uranium,pressurized-heavy-water-reactor,100,MW,PAK,PAK-SD,24.845,66.7888,exact,NA,NA,NA,NA,01/01/1972,01/08/2021,,FALSE,,,FALSE,,,,,retired
TZPWR2403000054428U001,TZPWR2403000054428,Karachi nuclear power plant - 2,Karachi nuclear power plant,operating,uranium,pressurized-water-reactor,1100,MW,PAK,PAK-SD,24.845,66.7888,exact,NA,NA,NA,NA,01/01/2021,,,FALSE,,,FALSE,,,,,operating
TZPWR2403000054428U002,TZPWR2403000054428,Karachi nuclear power plant - 3,Karachi nuclear power plant,operating,uranium,pressurized-water-reactor,1100,MW,PAK,PAK-SD,24.845,66.7888,exact,NA,NA,NA,NA,01/01/2022,,,FALSE,,,FALSE,,,,,operating
TZPWR2403000054429U000,TZPWR2403000054429,Karot hydroelectric plant,Karot hydroelectric plant,operating,water,hydro-run-of-river,720,MW,PAK,PAK-PB,33.6013,73.607,exact,NA,NA,NA,NA,01/01/2022,,,FALSE,,,FALSE,,,,Jhelum River,operating
TZPWR2403000054430U000,TZPWR2403000054430,Karrang hydroelectric plant,Karrang hydroelectric plant,inactive,water,hydro-unspecified,458,MW,PAK,PAK-NW,34.5001,73.2501,approximate,NA,NA,NA,NA,,,,FALSE,,,FALSE,,,,Kondia River,inactive
TZPWR2403000054431U000,TZPWR2403000054431,Kashmir Sugar Mills power station - 1,Kashmir Sugar Mills power station,committed,wood-and-other-biomass-solids,biomass,40,MW,PAK,PAK-PB,30.8236,72.1429,exact,NA,NA,NA,NA,01/01/2023,,,FALSE,,,FALSE,,,,,pre_construction
TZPWR2403000054432U000,TZPWR2403000054432,Keti Bandar power station - Unit 1,Keti Bandar power station,planned,lignite,coal-unspecified,660,MW,PAK,PAK-SD,24.15,67.45,approximate,NA,NA,NA,NA,01/01/2025,,,FALSE,,,FALSE,,,,,pre_permit
TZPWR2403000054432U001,TZPWR2403000054432,Keti Bandar power station - Unit 2,Keti Bandar power station,planned,lignite,coal-unspecified,660,MW,PAK,PAK-SD,24.15,67.45,approximate,NA,NA,NA,NA,01/01/2025,,,FALSE,,,FALSE,,,,,pre_permit
TZPWR2403000054433U000,TZPWR2403000054433,Keyal Khwar hydroelectric plant,Keyal Khwar hydroelectric plant,committed,water,hydro-run-of-river,128,MW,PAK,PAK-NW,34.9027,72.807,exact,NA,NA,NA,NA,,,,FALSE,,,FALSE,,,,Keyal Khwar Nallah River,pre_construction
TZPWR2403000054434U000,TZPWR2403000054434,Khalifa Refinery power station - 1:12,Khalifa Refinery power station,operating,heavy-fuel-oil,internal-combustion-combined-cycle,115.5,MW,PAK,PAK-SD,24.99997579,66.90727742,exact,light-fuel-oil,NA,NA,NA,01/01/2022,,,FALSE,,,FALSE,,,,,operating
TZPWR2403000054435U000,TZPWR2403000054435,Khan Khawar hydroelectric plant,Khan Khawar hydroelectric plant,operating,water,hydro-reservoir,72,MW,PAK,PAK-NW,34.9028,72.8075,exact,NA,NA,NA,NA,01/01/2012,,,FALSE,,,FALSE,,,,Khan Khwar River,operating
TZPWR2403000054436U000,TZPWR2403000054436,Khuzdar (Engro Energy) solar farm - 1,Khuzdar (Engro Energy) solar farm,committed,NA,photovoltaic-unspecified,50,MW,PAK,PAK-BA,27.8202,66.6578,approximate,NA,NA,NA,NA,,,,FALSE,,,FALSE,,,,,pre_construction
TZPWR2403000054436U001,TZPWR2403000054436,Khuzdar (Engro Energy) solar farm - 2,Khuzdar (Engro Energy) solar farm,committed,NA,photovoltaic-unspecified,50,MW,PAK,PAK-BA,27.8202,66.6578,approximate,NA,NA,NA,NA,,,,FALSE,,,FALSE,,,,,pre_construction
TZPWR2403000054437U000,TZPWR2403000054437,Khuzdar (IB Voght) solar farm,Khuzdar (IB Voght) solar farm,committed,NA,photovoltaic-unspecified,50,MW,PAK,PAK-BA,27.8202,66.6578,approximate,NA,NA,NA,NA,,,,FALSE,,,FALSE,,,,,pre_construction
TZPWR2403000054438U000,TZPWR2403000054438,Kohala hydroelectric plant,Kohala hydroelectric plant,committed,water,hydro-reservoir,1118,MW,PAK,PAK-PB,33.5295,72.973,approximate,NA,NA,NA,NA,01/01/2025,,,FALSE,,,FALSE,,,,Jhelum River,pre_construction
TZPWR2403000054439U000,TZPWR2403000054439,Kohinoor Energy Limited power plant - 1:8,Kohinoor Energy Limited power plant,operating,heavy-fuel-oil,internal-combustion-combined-cycle,120,MW,PAK,PAK-PB,31.26334622,74.1877071,exact,NA,NA,NA,NA,01/01/1994,,,FALSE,,,FALSE,,,,,operating
TZPWR2403000054439U001,TZPWR2403000054439,Kohinoor Energy Limited power plant - 9,Kohinoor Energy Limited power plant,operating,heavy-fuel-oil,steam-turbine,8,MW,PAK,PAK-PB,31.26334622,74.1877071,exact,NA,NA,NA,NA,01/01/1994,,,FALSE,,,FALSE,,,,,operating
TZPWR2403000054440U000,TZPWR2403000054440,Korangi Creek Industrial power station - 1,Korangi Creek Industrial power station,inactive,natural-gas,combined-cycle,54,MW,PAK,PAK-PB,24.80324334,67.10204592,approximate,NA,NA,NA,NA,,,,FALSE,,,FALSE,,,,,shelved
TZPWR2403000054441U000,TZPWR2403000054441,Korangi Town power station - 1,Korangi Town power station,operating,natural-gas,internal-combustion-combined-cycle,87.648,MW,PAK,PAK-SD,24.85860842,67.13125467,approximate,liquified-natural-gas,NA,NA,NA,01/01/2009,,,FALSE,,,FALSE,,,,,operating
TZPWR2403000054442U000,TZPWR2403000054442,Korangi power station - 1,Korangi power station,operating,natural-gas,combined-cycle,248,MW,PAK,PAK-SD,24.7855289,67.1376789,exact,diesel,NA,NA,NA,01/01/2015,,,FALSE,,,FALSE,,,,,operating
TZPWR2403000054442U001,TZPWR2403000054442,Korangi power station - 2,Korangi power station,inactive,natural-gas,combined-cycle,250,MW,PAK,PAK-SD,24.7855289,67.1376789,exact,fuel-oil,NA,NA,NA,,,,FALSE,,,FALSE,,,,,cancelled
TZPWR2403000054443U000,TZPWR2403000054443,Kotli hydroelectric plant,Kotli hydroelectric plant,inactive,water,hydro-unspecified,100,MW,PAK,PAK-JK,33.8441,73.7966,approximate,NA,NA,NA,NA,,,,FALSE,,,FALSE,,,,,inactive
TZPWR2403000054444U000,TZPWR2403000054444,Kotri power station - 1,Kotri power station,inactive,natural-gas,combined-cycle,144,MW,PAK,PAK-SD,25.340932,68.255925,exact,diesel,NA,NA,NA,01/01/1979,01/01/2020,,FALSE,,,FALSE,,,,,retired
TZPWR2403000054445U000,TZPWR2403000054445,Kuchlak (El Passo Technology) solar farm - 1,Kuchlak (El Passo Technology) solar farm,committed,NA,photovoltaic-unspecified,50,MW,PAK,PAK-BA,30.1909,66.9837,approximate,NA,NA,NA,NA,,,,FALSE,,,FALSE,,,,,pre_construction
TZPWR2403000054445U001,TZPWR2403000054445,Kuchlak (El Passo Technology) solar farm - 2,Kuchlak (El Passo Technology) solar farm,committed,NA,photovoltaic-unspecified,50,MW,PAK,PAK-BA,30.1909,66.9837,approximate,NA,NA,NA,NA,,,,FALSE,,,FALSE,,,,,pre_construction
TZPWR2403000054446U000,TZPWR2403000054446,Kuchlak (Engro Energy) solar farm - 1,Kuchlak (Engro Energy) solar farm,inactive,NA,photovoltaic-unspecified,50,MW,PAK,PAK-BA,30.3628,66.9497,approximate,NA,NA,NA,NA,,,,FALSE,,,FALSE,,,,,cancelled
TZPWR2403000054446U001,TZPWR2403000054446,Kuchlak (Engro Energy) solar farm - 2,Kuchlak (Engro Energy) solar farm,inactive,NA,photovoltaic-unspecified,50,MW,PAK,PAK-BA,30.3628,66.9497,approximate,NA,NA,NA,NA,,,,FALSE,,,FALSE,,,,,cancelled
TZPWR2403000054446U002,TZPWR2403000054446,Kuchlak (Engro Energy) solar farm - 3,Kuchlak (Engro Energy) solar farm,inactive,NA,photovoltaic-unspecified,50,MW,PAK,PAK-BA,30.3628,66.9497,approximate,NA,NA,NA,NA,,,,FALSE,,,FALSE,,,,,cancelled
TZPWR2403000054446U003,TZPWR2403000054446,Kuchlak (Engro Energy) solar farm - 4,Kuchlak (Engro Energy) solar farm,inactive,NA,photovoltaic-unspecified,50,MW,PAK,PAK-BA,30.3628,66.9497,approximate,NA,NA,NA,NA,,,,FALSE,,,FALSE,,,,,cancelled
TZPWR2403000054447U000,TZPWR2403000054447,Kulachi (FAS) solar farm,Kulachi (FAS) solar farm,committed,NA,photovoltaic-unspecified,50,MW,PAK,PAK-TA,34.6823,71.4284,approximate,NA,NA,NA,NA,01/01/2024,,,FALSE,,,FALSE,,,,,pre_construction
TZPWR2403000054448U000,TZPWR2403000054448,Kulachi solar farm,Kulachi solar farm,planned,NA,photovoltaic-unspecified,50,MWp/dc,PAK,PAK-TA,34.6823,71.4284,approximate,NA,NA,NA,NA,,,,FALSE,,,FALSE,,,,,announced
TZPWR2403000054449U000,TZPWR2403000054449,Lahore Waste-to-Energy power station - 1,Lahore Waste-to-Energy power station,planned,municipal-and-industrial-wastes,waste,40,MW,PAK,PAK-PB,31.6277,74.4186,approximate,NA,NA,NA,NA,,,,FALSE,,,FALSE,,,,,announced
TZPWR2403000054450U000,TZPWR2403000054450,Lahore power station - --,Lahore power station,inactive,coal-unspecified,coal-unspecified,440,MW,PAK,PAK-PB,31.549722,74.343611,approximate,NA,NA,NA,NA,,,,FALSE,,,FALSE,,,,,cancelled
TZPWR2403000054451U000,TZPWR2403000054451,Lakeside Energy wind farm,Lakeside Energy wind farm,operating,NA,wind-onshore,50,MW,PAK,PAK-SD,25.012,67.7308,exact,NA,NA,NA,NA,01/01/2022,,,FALSE,,,FALSE,,,,,operating
TZPWR2403000054452U000,TZPWR2403000054452,Lakhra mine-to-mouth power station - --,Lakhra mine-to-mouth power station,inactive,coal-unspecified,coal-unspecified,450,MW,PAK,PAK-BA,25.865,66.451667,approximate,NA,NA,NA,NA,,,,FALSE,,,FALSE,,,,,cancelled
TZPWR2403000054453U000,TZPWR2403000054453,Lakhra power station - Expansion,Lakhra power station,inactive,lignite,supercritical,1320,MW,PAK,PAK-SD,25.705733,68.286467,exact,NA,NA,NA,NA,,,,FALSE,,,FALSE,,,,,cancelled
TZPWR2403000054453U001,TZPWR2403000054453,Lakhra power station - Unit 1,Lakhra power station,inactive,lignite,subcritical,50,MW,PAK,PAK-SD,25.705733,68.286467,exact,NA,NA,NA,NA,01/01/1995,,,FALSE,,,FALSE,,,,,mothballed
TZPWR2403000054453U002,TZPWR2403000054453,Lakhra power station - Unit 2,Lakhra power station,inactive,lignite,subcritical,50,MW,PAK,PAK-SD,25.705733,68.286467,exact,NA,NA,NA,NA,01/01/1995,,,FALSE,,,FALSE,,,,,mothballed
TZPWR2403000054453U003,TZPWR2403000054453,Lakhra power station - Unit 3,Lakhra power station,inactive,lignite,subcritical,50,MW,PAK,PAK-SD,25.705733,68.286467,exact,NA,NA,NA,NA,01/01/1996,,,FALSE,,,FALSE,,,,,mothballed
TZPWR2403000054454U000,TZPWR2403000054454,Lal Sohanra solar farm,Lal Sohanra solar farm,inactive,NA,photovoltaic-unspecified,50,MW,PAK,PAK-PB,29.4445,71.9861,approximate,NA,NA,NA,NA,,,,FALSE,,,FALSE,,,,,cancelled
TZPWR2403000054455U000,TZPWR2403000054455,Lalpir Power Limited power station - 1,Lalpir Power Limited power station,operating,heavy-fuel-oil,steam-turbine,326,MW,PAK,PAK-PB,30.17224484,70.99356286,exact,diesel,NA,NA,NA,01/01/1994,,,FALSE,,,FALSE,,,,,operating
TZPWR2403000054456U000,TZPWR2403000054456,Lasbela solar farm,Lasbela solar farm,committed,NA,photovoltaic-unspecified,50,MW,PAK,PAK-BA,25.0662,66.8744,approximate,NA,NA,NA,NA,,,,FALSE,,,FALSE,,,,,pre_construction
TZPWR2403000054457U000,TZPWR2403000054457,Layyah Sugar Mills power station - 1,Layyah Sugar Mills power station,operating,agricultural-waste-solids,biomass,41,MW,PAK,PAK-PB,30.9861,70.9497,exact,NA,NA,NA,NA,01/01/2017,,,FALSE,,,FALSE,,,,,operating
TZPWR2403000054458U000,TZPWR2403000054458,Layyah solar farm,Layyah solar farm,committed,NA,photovoltaic-unspecified,1200,MW,PAK,PAK-PB,30.6669,71.5473,approximate,NA,NA,NA,NA,01/01/2023,,,FALSE,,,FALSE,,,,,pre_construction
TZPWR2403000054459U000,TZPWR2403000054459,Liberty Power Tech power station - 1-11,Liberty Power Tech power station,operating,heavy-fuel-oil,internal-combustion-combined-cycle,185.9,MW,PAK,PAK-PB,31.69855692,73.20835882,exact,NA,NA,NA,NA,01/01/2011,,,FALSE,,,FALSE,,,,,operating
TZPWR2403000054459U001,TZPWR2403000054459,Liberty Power Tech power station - 12,Liberty Power Tech power station,operating,heavy-fuel-oil,steam-turbine,14,MW,PAK,PAK-PB,31.69855692,73.20835882,exact,NA,NA,NA,NA,01/01/2011,,,FALSE,,,FALSE,,,,,operating
TZPWR2403000054460U000,TZPWR2403000054460,Liberty Wind Farm 1,Liberty Wind Farm 1,operating,NA,wind-onshore,50,MW,PAK,PAK-SD,24.9097,67.7997,exact,NA,NA,NA,NA,01/01/2022,,,FALSE,,,FALSE,,,,,operating
TZPWR2403000054461U000,TZPWR2403000054461,Liberty Wind Farm 2,Liberty Wind Farm 2,operating,NA,wind-onshore,50,MW,PAK,PAK-SD,24.9008,67.7932,exact,NA,NA,NA,NA,01/01/2022,,,FALSE,,,FALSE,,,,,operating
TZPWR2403000054462U000,TZPWR2403000054462,Liberty power station - 1,Liberty power station,operating,natural-gas,combined-cycle,235,MW,PAK,PAK-SD,28.0321419,69.633708,exact,diesel,NA,NA,NA,01/01/2001,,,FALSE,,,FALSE,,,,,operating
TZPWR2403000054463U000,TZPWR2403000054463,Lower Palas Valley hydroelectric plant,Lower Palas Valley hydroelectric plant,committed,water,hydro-run-of-river,665,MW,PAK,PAK-TA,33.7128,71.2679,approximate,NA,NA,NA,NA,,,,FALSE,,,FALSE,,,,Indus River,pre_construction
TZPWR2403000054464U000,TZPWR2403000054464,Lower Spat Gah hydroelectric plant,Lower Spat Gah hydroelectric plant,committed,water,hydro-run-of-river,496,MW,PAK,PAK-TA,33.7128,71.2679,approximate,NA,NA,NA,NA,,,,FALSE,,,FALSE,,,,Indus River,pre_construction
TZPWR2403000054465U000,TZPWR2403000054465,Lucky Cement solar farm - 1,Lucky Cement solar farm,operating,NA,photovoltaic-unspecified,34,MW,PAK,PAK-NW,32.291,70.7378,approximate,NA,NA,NA,NA,01/01/2022,,,FALSE,,,FALSE,,,,,operating
TZPWR2403000054465U001,TZPWR2403000054465,Lucky Cement solar farm - 2,Lucky Cement solar farm,operating,NA,photovoltaic-unspecified,25,MW,PAK,PAK-SD,25.0557,67.4998,approximate,NA,NA,NA,NA,01/01/2023,,,FALSE,,,FALSE,,,,,operating
TZPWR2403000054466U000,TZPWR2403000054466,Madian hydroelectric plant,Madian hydroelectric plant,committed,water,hydro-reservoir,157,MW,PAK,PAK-PB,31.2501,72.8001,approximate,NA,NA,NA,NA,,,,FALSE,,,FALSE,,,,Swat River,pre_construction
TZPWR2403000054467U000,TZPWR2403000054467,Mahl hydroelectric plant,Mahl hydroelectric plant,committed,water,hydro-run-of-river,640,MW,PAK,PAK-JK,33.8441,73.7966,approximate,NA,NA,NA,NA,01/01/2029,,,FALSE,,,FALSE,,,,Jhelum River,pre_construction
TZPWR2403000054468U000,TZPWR2403000054468,Mahmoodkot power station - --,Mahmoodkot power station,inactive,coal-unspecified,coal-unspecified,660,MW,PAK,PAK-PB,30.191,71.011,approximate,NA,NA,NA,NA,,,,FALSE,,,FALSE,,,,,cancelled
TZPWR2403000054469U000,TZPWR2403000054469,Malakand 3 hydroelectric plant,Malakand 3 hydroelectric plant,operating,water,hydro-run-of-river,81,MW,PAK,PAK-NW,34.678,72.2243,approximate,NA,NA,NA,NA,01/01/2008,,,FALSE,,,FALSE,,,,Swat River,operating
TZPWR2403000054470U000,TZPWR2403000054470,Mangla hydroelectric plant,Mangla hydroelectric plant,operating,water,hydro-reservoir,1070,MW,PAK,PAK-JK,33.1274,73.644,exact,NA,NA,NA,NA,01/01/1986,,,FALSE,,,FALSE,,,,Jhelum River,operating
TZPWR2403000054470U001,TZPWR2403000054470,Mangla hydroelectric plant,Mangla hydroelectric plant,committed,water,hydro-reservoir,250,MW,PAK,PAK-JK,33.1274,73.644,exact,NA,NA,NA,NA,01/01/2024,,,FALSE,,,FALSE,,,,Jhelum River,under_construction
TZPWR2403000054471U000,TZPWR2403000054471,Manjhand solar farm - 1,Manjhand solar farm,inactive,NA,photovoltaic-unspecified,50,MW,PAK,PAK-SD,25.452,68.2732,approximate,NA,NA,NA,NA,,,,FALSE,,,FALSE,,,,,cancelled
TZPWR2403000054471U001,TZPWR2403000054471,Manjhand solar farm - 2,Manjhand solar farm,inactive,NA,photovoltaic-unspecified,350,MW,PAK,PAK-SD,24.8597,67.022,approximate,NA,NA,NA,NA,,,,FALSE,,,FALSE,,,,,cancelled
TZPWR2403000054472U000,TZPWR2403000054472,Maple Leaf power station - --,Maple Leaf power station,operating,coal-unspecified,subcritical,40,MW,PAK,PAK-PB,32.904671,71.610642,exact,petrolium-coke,NA,NA,NA,01/01/2017,,,TRUE,industrial,cement/building,FALSE,,,,,operating
TZPWR2403000054473U000,TZPWR2403000054473,Master Green Energy wind farm,Master Green Energy wind farm,operating,NA,wind-onshore,50,MW,PAK,PAK-SD,25.3929,68.1246,exact,NA,NA,NA,NA,01/01/2021,,,FALSE,,,FALSE,,,,,operating
TZPWR2403000054474U000,TZPWR2403000054474,Master Wind Energy wind farm,Master Wind Energy wind farm,operating,NA,wind-onshore,53,MW,PAK,PAK-SD,25.0892,67.9997,exact,NA,NA,NA,NA,01/01/2016,,,FALSE,,,FALSE,,,,,operating
TZPWR2403000054475U000,TZPWR2403000054475,Matiltan hydroelectric plant,Matiltan hydroelectric plant,committed,water,hydro-run-of-river,84,MW,PAK,PAK-NW,35.5662,72.6692,exact,NA,NA,NA,NA,01/01/2023,,,FALSE,,,FALSE,,,,Suvastu River,under_construction
TZPWR2403000054476U000,TZPWR2403000054476,Meridian Energy wind farm,Meridian Energy wind farm,committed,NA,wind-onshore,50,MW,PAK,PAK-BA,30.0488,69.8111,approximate,NA,NA,NA,NA,01/01/2023,,,FALSE,,,FALSE,,,,,under_construction
TZPWR2403000054477U000,TZPWR2403000054477,Metro Power wind farm,Metro Power wind farm,operating,NA,wind-onshore,50,MW,PAK,PAK-SD,25.1718,67.9695,exact,NA,NA,NA,NA,01/01/2016,,,FALSE,,,FALSE,,,,,operating
TZPWR2403000054478U000,TZPWR2403000054478,Metro Wind Power wind farm,Metro Wind Power wind farm,operating,NA,wind-onshore,60,MW,PAK,PAK-SD,24.9921,67.7031,exact,NA,NA,NA,NA,01/01/2022,,,FALSE,,,FALSE,,,,,operating
TZPWR2403000054479U000,TZPWR2403000054479,Middle Palas Valley hydroelectric plant,Middle Palas Valley hydroelectric plant,committed,water,hydro-reservoir,398,MW,PAK,PAK-TA,33.7128,71.2679,approximate,NA,NA,NA,NA,,,,FALSE,,,FALSE,,,,Indus River,pre_construction
TZPWR2403000054480U000,TZPWR2403000054480,Middle Spat Gah hydroelectric plant,Middle Spat Gah hydroelectric plant,committed,water,hydro-reservoir,489,MW,PAK,PAK-TA,33.7128,71.2679,approximate,NA,NA,NA,NA,,,,FALSE,,,FALSE,,,,Gabarband Gah River,pre_construction
TZPWR2403000054481U000,TZPWR2403000054481,Mohmand hydroelectric plant,Mohmand hydroelectric plant,committed,water,hydro-reservoir,800,MW,PAK,PAK-TA,34.5342,71.2756,approximate,NA,NA,NA,NA,01/01/2025,,,FALSE,,,FALSE,,,,Swat River,under_construction
TZPWR2403000054482U000,TZPWR2403000054482,Mouza Saddan Wali power station - --,Mouza Saddan Wali power station,inactive,coal-unspecified,coal-unspecified,1320,MW,PAK,PAK-PB,30.333333,71.083333,approximate,NA,NA,NA,NA,,,,FALSE,,,FALSE,,,,,cancelled
TZPWR2403000054483U000,TZPWR2403000054483,Multan power station - Unit 1,Multan power station,inactive,coal-unspecified,coal-unspecified,55,MW,PAK,PAK-PB,30.197778,71.469722,approximate,NA,NA,NA,NA,,,,FALSE,,,FALSE,,,,,cancelled
TZPWR2403000054483U001,TZPWR2403000054483,Multan power station - Unit 2,Multan power station,inactive,coal-unspecified,coal-unspecified,55,MW,PAK,PAK-PB,30.197778,71.469722,approximate,NA,NA,NA,NA,,,,FALSE,,,FALSE,,,,,cancelled
TZPWR2403000054484U000,TZPWR2403000054484,Muzaffargarh power station - --,Muzaffargarh power station,inactive,coal-unspecified,coal-unspecified,1340,MW,PAK,PAK-PB,30.105559,71.163855,exact,NA,NA,NA,NA,,,,FALSE,,,FALSE,,,,,cancelled
TZPWR2403000054484U001,TZPWR2403000054484,Muzaffargarh power station - 1,Muzaffargarh power station,operating,natural-gas,steam-turbine,210,MW,PAK,PAK-PB,30.1042153,71.1587064,exact,fuel-oil,NA,NA,NA,01/01/1993,,,FALSE,,,FALSE,,,,,operating
TZPWR2403000054484U002,TZPWR2403000054484,Muzaffargarh power station - 2,Muzaffargarh power station,operating,natural-gas,steam-turbine,210,MW,PAK,PAK-PB,30.1042153,71.1587064,exact,fuel-oil,NA,NA,NA,01/01/1994,,,FALSE,,,FALSE,,,,,operating
TZPWR2403000054484U003,TZPWR2403000054484,Muzaffargarh power station - 3,Muzaffargarh power station,operating,natural-gas,steam-turbine,210,MW,PAK,PAK-PB,30.1042153,71.1587064,exact,fuel-oil,NA,NA,NA,01/01/1995,,,FALSE,,,FALSE,,,,,operating
TZPWR2403000054484U004,TZPWR2403000054484,Muzaffargarh power station - 4,Muzaffargarh power station,operating,natural-gas,steam-turbine,200,MW,PAK,PAK-PB,30.1042153,71.1587064,exact,fuel-oil,NA,NA,NA,01/01/1995,,,FALSE,,,FALSE,,,,,operating
TZPWR2403000054484U005,TZPWR2403000054484,Muzaffargarh power station - 5,Muzaffargarh power station,operating,natural-gas,steam-turbine,200,MW,PAK,PAK-PB,30.1042153,71.1587064,exact,fuel-oil,NA,NA,NA,01/01/1995,,,FALSE,,,FALSE,,,,,operating
TZPWR2403000054484U006,TZPWR2403000054484,Muzaffargarh power station - 6,Muzaffargarh power station,operating,natural-gas,steam-turbine,320,MW,PAK,PAK-PB,30.1042153,71.1587064,exact,fuel-oil,NA,NA,NA,01/01/1997,,,FALSE,,,FALSE,,,,,operating
TZPWR2403000054485U000,TZPWR2403000054485,Muzaffargarh solar farm - 1,Muzaffargarh solar farm,planned,NA,photovoltaic-unspecified,160,MWac,PAK,PAK-PB,30.5799,71.2362,approximate,NA,NA,NA,NA,,,,FALSE,,,FALSE,,,,,announced
TZPWR2403000054485U001,TZPWR2403000054485,Muzaffargarh solar farm - 2,Muzaffargarh solar farm,planned,NA,photovoltaic-unspecified,160,MWac,PAK,PAK-PB,30.5799,71.2362,approximate,NA,NA,NA,NA,,,,FALSE,,,FALSE,,,,,announced
TZPWR2403000054485U002,TZPWR2403000054485,Muzaffargarh solar farm - 3,Muzaffargarh solar farm,planned,NA,photovoltaic-unspecified,160,MWac,PAK,PAK-PB,30.5799,71.2362,approximate,NA,NA,NA,NA,,,,FALSE,,,FALSE,,,,,announced
TZPWR2403000054485U003,TZPWR2403000054485,Muzaffargarh solar farm - 4,Muzaffargarh solar farm,planned,NA,photovoltaic-unspecified,160,MWac,PAK,PAK-PB,30.5799,71.2362,approximate,NA,NA,NA,NA,,,,FALSE,,,FALSE,,,,,announced
TZPWR2403000054486U000,TZPWR2403000054486,Muzaffargarh sugar mill power station - Unit 1,Muzaffargarh sugar mill power station,operating,coal-unspecified,unspecified-cofiring,60,MW,PAK,PAK-PB,30.29455,70.96697,exact,agricultural-waste-solids,NA,NA,NA,01/01/2017,,,FALSE,industrial,sugar,FALSE,,,,,operating
TZPWR2403000054486U001,TZPWR2403000054486,Muzaffargarh sugar mill power station - Unit 2,Muzaffargarh sugar mill power station,operating,coal-unspecified,unspecified-cofiring,60,MW,PAK,PAK-PB,30.29455,70.96697,exact,agricultural-waste-solids,NA,NA,NA,01/01/2017,,,FALSE,industrial,sugar,FALSE,,,,,operating
TZPWR2403000054487U000,TZPWR2403000054487,NBT wind farm - 1,NBT wind farm,inactive,NA,wind-onshore,250,MW,PAK,PAK-SD,25.3304,68.0989,approximate,NA,NA,NA,NA,,,,FALSE,,,FALSE,,,,,cancelled
TZPWR2403000054487U001,TZPWR2403000054487,NBT wind farm - 2,NBT wind farm,inactive,NA,wind-onshore,250,MW,PAK,PAK-SD,25.3816,68.1376,approximate,NA,NA,NA,NA,,,,FALSE,,,FALSE,,,,,cancelled
TZPWR2403000054488U000,TZPWR2403000054488,Nandipur power station - 1,Nandipur power station,operating,liquified-natural-gas,combined-cycle,567,MW,PAK,PAK-PB,32.2425932,74.266934,exact,NA,NA,NA,NA,01/01/2014,,,FALSE,,,FALSE,,,,,operating
TZPWR2403000054489U000,TZPWR2403000054489,Narowal power plant - 1:11,Narowal power plant,operating,heavy-fuel-oil,internal-combustion-combined-cycle,202.4,MW,PAK,PAK-PB,32.05924565,74.78168249,exact,NA,NA,NA,NA,01/01/2012,,,FALSE,,,FALSE,,,,,operating
TZPWR2403000054489U001,TZPWR2403000054489,Narowal power plant - 12,Narowal power plant,operating,heavy-fuel-oil,steam-turbine,16.5,MW,PAK,PAK-PB,32.05924565,74.78168249,exact,NA,NA,NA,NA,01/01/2012,,,FALSE,,,FALSE,,,,,operating
TZPWR2403000054490U000,TZPWR2403000054490,Nasda Green Energy wind farm,Nasda Green Energy wind farm,operating,NA,wind-onshore,50,MW,PAK,PAK-SD,25.0056,67.7524,exact,NA,NA,NA,NA,01/01/2022,,,FALSE,,,FALSE,,,,,operating
TZPWR2403000054491U000,TZPWR2403000054491,Neckeherdim-Paur hydroelectric plant,Neckeherdim-Paur hydroelectric plant,inactive,water,hydro-run-of-river,80,MW,PAK,PAK-NW,36.3318,72.2872,approximate,NA,NA,NA,NA,,,,FALSE,,,FALSE,,,,Yarkun River,inactive
TZPWR2403000054492U000,TZPWR2403000054492,Neelum Jhelum hydroelectric plant,Neelum Jhelum hydroelectric plant,operating,water,hydro-reservoir,969,MW,PAK,PAK-JK,34.3929,73.7169,exact,NA,NA,NA,NA,01/01/2018,,,FALSE,,,FALSE,,,,Neelum River,operating
TZPWR2403000054493U000,TZPWR2403000054493,New Bong Escape hydroelectric plant,New Bong Escape hydroelectric plant,operating,water,hydro-run-of-river,84,MW,PAK,PAK-JK,33.0914,73.7133,exact,NA,NA,NA,NA,01/01/2013,,,FALSE,,,FALSE,,,,Upper Jhelum River,operating
TZPWR2403000054494U000,TZPWR2403000054494,New Park Energy wind farm,New Park Energy wind farm,inactive,NA,wind-onshore,45,MW,PAK,PAK-SD,24.7791,67.3347,approximate,NA,NA,NA,NA,,,,FALSE,,,FALSE,,,,,cancelled
TZPWR2403000054495U000,TZPWR2403000054495,Nishat Chunian power station - 1:11,Nishat Chunian power station,operating,heavy-fuel-oil,internal-combustion-combined-cycle,185.9,MW,PAK,PAK-PB,31.12372889,73.90166583,exact,diesel,NA,NA,NA,01/01/2010,,,FALSE,,,FALSE,,,,,operating
TZPWR2403000054495U001,TZPWR2403000054495,Nishat Chunian power station - 12,Nishat Chunian power station,operating,heavy-fuel-oil,steam-turbine,14,MW,PAK,PAK-PB,31.12372889,73.90166583,exact,diesel,NA,NA,NA,01/01/2010,,,FALSE,,,FALSE,,,,,operating
TZPWR2403000054496U000,TZPWR2403000054496,Nishat Power Limited power plant - 1:11,Nishat Power Limited power plant,operating,heavy-fuel-oil,internal-combustion-combined-cycle,185.9,MW,PAK,PAK-PB,31.12372889,73.90166583,exact,NA,NA,NA,NA,01/01/2010,,,FALSE,,,FALSE,,,,,operating
TZPWR2403000054496U001,TZPWR2403000054496,Nishat Power Limited power plant - 12,Nishat Power Limited power plant,operating,heavy-fuel-oil,steam-turbine,14,MW,PAK,PAK-PB,31.12372889,73.90166583,exact,NA,NA,NA,NA,01/01/2010,,,FALSE,,,FALSE,,,,,operating
TZPWR2403000054497U000,TZPWR2403000054497,Nishat Rahim Yar Khan power station - --,Nishat Rahim Yar Khan power station,inactive,coal-unspecified,supercritical,660,MW,PAK,PAK-PB,28.935,70.941,approximate,NA,NA,NA,NA,,,,FALSE,,,FALSE,,,,,cancelled
TZPWR2403000054498U000,TZPWR2403000054498,Nooriabad power plant - 1,Nooriabad power plant,operating,natural-gas,combined-cycle,50,MW,PAK,PAK-SD,25.27403785,68.48645748,approximate,NA,NA,NA,NA,01/01/2017,,,FALSE,,,FALSE,,,,,operating
TZPWR2403000054498U001,TZPWR2403000054498,Nooriabad power plant - 2,Nooriabad power plant,operating,natural-gas,combined-cycle,50,MW,PAK,PAK-SD,25.27403785,68.48645748,approximate,NA,NA,NA,NA,01/01/2017,,,FALSE,,,FALSE,,,,,operating
TZPWR2403000054499U000,TZPWR2403000054499,Nooriabad solar farm - 1,Nooriabad solar farm,planned,NA,photovoltaic-unspecified,50,MWp/dc,PAK,PAK-SD,25.3201,68.007,exact,NA,NA,NA,NA,,,,FALSE,,,FALSE,,,,,announced
TZPWR2403000054499U001,TZPWR2403000054499,Nooriabad solar farm - 2,Nooriabad solar farm,planned,NA,photovoltaic-unspecified,50,MWp/dc,PAK,PAK-SD,25.3201,68.007,exact,NA,NA,NA,NA,,,,FALSE,,,FALSE,,,,,announced
TZPWR2403000054499U002,TZPWR2403000054499,Nooriabad solar farm - 3,Nooriabad solar farm,planned,NA,photovoltaic-unspecified,50,MWp/dc,PAK,PAK-SD,25.3201,68.007,exact,NA,NA,NA,NA,,,,FALSE,,,FALSE,,,,,announced
TZPWR2403000054500U000,TZPWR2403000054500,Norinco wind farm,Norinco wind farm,planned,NA,wind-onshore,100,MW,PAK,PAK-SD,25.1121,68.0332,approximate,NA,NA,NA,NA,01/01/2025,,,FALSE,,,FALSE,,,,,announced
TZPWR2403000054501U000,TZPWR2403000054501,Oracle Green Hydrogen solar farm,Oracle Green Hydrogen solar farm,planned,NA,photovoltaic-unspecified,700,MW,PAK,PAK-SD,26.4445,69.0358,approximate,NA,NA,NA,NA,,,,FALSE,,,FALSE,,,,,announced
TZPWR2403000054502U000,TZPWR2403000054502,Oracle Green Hydrogen wind farm,Oracle Green Hydrogen wind farm,planned,NA,wind-onshore,500,MW,PAK,PAK-SD,25.1529,68.0412,approximate,NA,NA,NA,NA,,,,FALSE,,,FALSE,,,,,announced
TZPWR2403000054503U000,TZPWR2403000054503,Orient power station - 1,Orient power station,operating,natural-gas,combined-cycle,225,MW,PAK,PAK-PB,31.1880052,73.8879167,exact,diesel,NA,NA,NA,01/01/2010,,,FALSE,,,FALSE,,,,,operating
TZPWR2403000054504U000,TZPWR2403000054504,Pakgen Power Limited power plant - 1,Pakgen Power Limited power plant,operating,heavy-fuel-oil,steam-turbine,365,MW,PAK,PAK-PB,30.17287093,70.99344484,exact,diesel,NA,NA,NA,01/01/1995,,,FALSE,,,FALSE,,,,,operating
TZPWR2403000054505U000,TZPWR2403000054505,Panjgoor solar farm,Panjgoor solar farm,committed,NA,photovoltaic-unspecified,50,MW,PAK,PAK-BA,25.1893,64.6054,approximate,NA,NA,NA,NA,,,,FALSE,,,FALSE,,,,,pre_construction
TZPWR2403000054506U000,TZPWR2403000054506,Patan hydroelectric plant,Patan hydroelectric plant,committed,water,hydro-run-of-river,2400,MW,PAK,PAK-TA,33.7128,71.2679,approximate,NA,NA,NA,NA,,,,FALSE,,,FALSE,,,,Indus River,pre_construction
TZPWR2403000054507U000,TZPWR2403000054507,Patrind hydroelectric plant,Patrind hydroelectric plant,operating,water,hydro-run-of-river,150,MW,PAK,PAK-JK,34.3411,73.4295,exact,NA,NA,NA,NA,01/01/2017,,,FALSE,,,FALSE,,,,Kunhar River,operating
TZPWR2403000054508U000,TZPWR2403000054508,Phandar hydroelectric plant,Phandar hydroelectric plant,committed,water,hydro-run-of-river,80,MW,PAK,PAK-NA,36,75,approximate,NA,NA,NA,NA,,,,FALSE,,,FALSE,,,,Ghizer River,pre_construction
TZPWR2403000054509U000,TZPWR2403000054509,Pishin solar farm,Pishin solar farm,inactive,NA,photovoltaic-unspecified,50,MW,PAK,PAK-BA,30.5829,66.9966,approximate,NA,NA,NA,NA,,,,FALSE,,,FALSE,,,,,shelved
TZPWR2403000054510U000,TZPWR2403000054510,Port Qasim Burj power station - Unit 1,Port Qasim Burj power station,inactive,coal-unspecified,subcritical,125,MW,PAK,PAK-SD,24.766667,67.333333,approximate,NA,NA,NA,NA,,,,FALSE,,,FALSE,,,,,cancelled
TZPWR2403000054510U001,TZPWR2403000054510,Port Qasim Burj power station - Unit 2,Port Qasim Burj power station,inactive,coal-unspecified,subcritical,125,MW,PAK,PAK-SD,24.766667,67.333333,approximate,NA,NA,NA,NA,,,,FALSE,,,FALSE,,,,,cancelled
TZPWR2403000054510U002,TZPWR2403000054510,Port Qasim Burj power station - Unit 3,Port Qasim Burj power station,inactive,coal-unspecified,subcritical,125,MW,PAK,PAK-SD,24.766667,67.333333,approximate,NA,NA,NA,NA,,,,FALSE,,,FALSE,,,,,cancelled
TZPWR2403000054510U003,TZPWR2403000054510,Port Qasim Burj power station - Unit 4,Port Qasim Burj power station,inactive,coal-unspecified,subcritical,125,MW,PAK,PAK-SD,24.766667,67.333333,approximate,NA,NA,NA,NA,,,,FALSE,,,FALSE,,,,,cancelled
TZPWR2403000054511U000,TZPWR2403000054511,Port Qasim Datang power station - Unit 1,Port Qasim Datang power station,inactive,coal-unspecified,supercritical,350,MW,PAK,PAK-SD,24.766667,67.333333,approximate,NA,NA,NA,NA,01/01/2022,,,FALSE,,,FALSE,,,,,cancelled
TZPWR2403000054511U001,TZPWR2403000054511,Port Qasim Datang power station - Unit 2,Port Qasim Datang power station,inactive,coal-unspecified,supercritical,350,MW,PAK,PAK-SD,24.766667,67.333333,approximate,NA,NA,NA,NA,01/01/2022,,,FALSE,,,FALSE,,,,,cancelled
TZPWR2403000054512U000,TZPWR2403000054512,Port Qasim EPC power station - Unit 1,Port Qasim EPC power station,operating,coal-unspecified,coal-unspecified,660,MW,PAK,PAK-SD,24.7845,67.36939,exact,NA,NA,NA,NA,01/01/2017,,,FALSE,,,FALSE,,,,,operating
TZPWR2403000054512U001,TZPWR2403000054512,Port Qasim EPC power station - Unit 2,Port Qasim EPC power station,operating,coal-unspecified,coal-unspecified,660,MW,PAK,PAK-SD,24.7845,67.36939,exact,NA,NA,NA,NA,01/01/2018,,,FALSE,,,FALSE,,,,,operating
TZPWR2403000054513U000,TZPWR2403000054513,Port Qasim Lucky power station - --,Port Qasim Lucky power station,operating,lignite,ultrasupercritical,660,MW,PAK,PAK-SD,24.812805,67.27456,exact,NA,NA,NA,NA,01/01/2022,,,FALSE,industrial,cement/building,FALSE,,,,,operating
TZPWR2403000054514U000,TZPWR2403000054514,Port Qasim SSRL power station - Unit 1,Port Qasim SSRL power station,inactive,coal-unspecified,coal-unspecified,220,MW,PAK,PAK-SD,24.766667,67.333333,approximate,NA,NA,NA,NA,,,,FALSE,,,FALSE,,,,,cancelled
TZPWR2403000054514U001,TZPWR2403000054514,Port Qasim SSRL power station - Unit 2,Port Qasim SSRL power station,inactive,coal-unspecified,coal-unspecified,220,MW,PAK,PAK-SD,24.766667,67.333333,approximate,NA,NA,NA,NA,,,,FALSE,,,FALSE,,,,,cancelled
TZPWR2403000054515U000,TZPWR2403000054515,Quaid-E-Azam Wind Park - 1,Quaid-E-Azam Wind Park,inactive,NA,wind-onshore,250,MW,PAK,PAK-PB,29.1054,70.329,approximate,NA,NA,NA,NA,,,,FALSE,,,FALSE,,,,,cancelled
TZPWR2403000054516U000,TZPWR2403000054516,Quaid-E-Azam solar farm - 1,Quaid-E-Azam solar farm,operating,NA,photovoltaic-unspecified,100,MWac,PAK,PAK-PB,29.321,71.823,exact,NA,NA,NA,NA,01/01/2015,,,FALSE,,,FALSE,,,,,operating
TZPWR2403000054516U001,TZPWR2403000054516,Quaid-E-Azam solar farm - 2 - Apollo,Quaid-E-Azam solar farm,operating,NA,photovoltaic-unspecified,100,MWp/dc,PAK,PAK-PB,29.3126,71.8399,exact,NA,NA,NA,NA,01/01/2016,,,FALSE,,,FALSE,,,,,operating
TZPWR2403000054516U002,TZPWR2403000054516,Quaid-E-Azam solar farm - 2 - Best Green Energy,Quaid-E-Azam solar farm,operating,NA,photovoltaic-unspecified,100,MWp/dc,PAK,PAK-PB,29.3014,71.8373,exact,NA,NA,NA,NA,01/01/2016,,,FALSE,,,FALSE,,,,,operating
TZPWR2403000054516U003,TZPWR2403000054516,Quaid-E-Azam solar farm - 2 - Crest,Quaid-E-Azam solar farm,operating,NA,photovoltaic-unspecified,100,MWac,PAK,PAK-PB,29.3032,71.8179,exact,NA,NA,NA,NA,01/01/2016,,,FALSE,,,FALSE,,,,,operating
TZPWR2403000054517U000,TZPWR2403000054517,Rahim Yar Khan power station - Unit 1,Rahim Yar Khan power station,inactive,coal-unspecified,coal-unspecified,660,MW,PAK,PAK-PB,28.42,70.3,approximate,NA,NA,NA,NA,,,,FALSE,,,FALSE,,,,,cancelled
TZPWR2403000054517U001,TZPWR2403000054517,Rahim Yar Khan power station - Unit 2,Rahim Yar Khan power station,inactive,coal-unspecified,coal-unspecified,660,MW,PAK,PAK-PB,28.42,70.3,approximate,NA,NA,NA,NA,,,,FALSE,,,FALSE,,,,,cancelled
TZPWR2403000054518U000,TZPWR2403000054518,Rajdhani hydroelectric plant,Rajdhani hydroelectric plant,committed,water,hydro-run-of-river,132,MW,PAK,PAK-JK,33.8441,73.7966,approximate,NA,NA,NA,NA,01/01/2029,,,FALSE,,,FALSE,,,,Poonch River,pre_construction
TZPWR2403000054519U000,TZPWR2403000054519,Reshma power station - 1,Reshma power station,operating,fuel-oil,internal-combustion-combined-cycle,97,MW,PAK,PAK-PB,31.24632711,74.17783847,exact,NA,NA,NA,NA,,,,FALSE,,,FALSE,,,,,operating
TZPWR2403000054520U000,TZPWR2403000054520,Rousch power station - 1,Rousch power station,operating,natural-gas,combined-cycle,450,MW,PAK,PAK-PB,30.568648,72.139604,exact,diesel,NA,NA,NA,01/01/1999,,,FALSE,,,FALSE,,,,,operating
TZPWR2403000054521U000,TZPWR2403000054521,SPS Faisalabad power station - 1-1,SPS Faisalabad power station,inactive,natural-gas,steam-turbine,66,MW,PAK,PAK-PB,31.445653,73.138347,exact,fuel-oil,NA,NA,NA,01/01/1967,01/01/2020,,FALSE,,,FALSE,,,,,retired
TZPWR2403000054521U001,TZPWR2403000054521,SPS Faisalabad power station - 1-2,SPS Faisalabad power station,inactive,natural-gas,steam-turbine,66,MW,PAK,PAK-PB,31.445653,73.138347,exact,fuel-oil,NA,NA,NA,01/01/1967,01/01/2020,,FALSE,,,FALSE,,,,,retired
TZPWR2403000054522U000,TZPWR2403000054522,Saba Power power plant - 1,Saba Power power plant,operating,heavy-fuel-oil,steam-turbine,134,MW,PAK,PAK-PB,31.73283621,73.87505104,exact,NA,NA,NA,NA,01/01/1999,,,FALSE,,,FALSE,,,,,operating
TZPWR2403000054523U000,TZPWR2403000054523,Sachal wind farm,Sachal wind farm,operating,NA,wind-onshore,50,MW,PAK,PAK-SD,25.137,67.9366,exact,NA,NA,NA,NA,01/01/2017,,,FALSE,,,FALSE,,,,,operating
TZPWR2403000054524U000,TZPWR2403000054524,Sahiwal power station - Unit 1,Sahiwal power station,operating,bituminous,coal-unspecified,660,MW,PAK,PAK-PB,30.71422,73.23802,exact,NA,NA,NA,NA,01/01/2017,,,FALSE,,,FALSE,,,,,operating
TZPWR2403000054524U001,TZPWR2403000054524,Sahiwal power station - Unit 2,Sahiwal power station,operating,bituminous,coal-unspecified,660,MW,PAK,PAK-PB,30.71422,73.23802,exact,NA,NA,NA,NA,01/01/2017,,,FALSE,,,FALSE,,,,,operating
TZPWR2403000054525U000,TZPWR2403000054525,Saif power station - 1,Saif power station,operating,natural-gas,combined-cycle,225,MW,PAK,PAK-PB,30.6961864,73.2593633,exact,diesel,NA,NA,NA,01/01/2010,,,FALSE,,,FALSE,,,,,operating
TZPWR2403000054526U000,TZPWR2403000054526,Saleh Pat solar farm,Saleh Pat solar farm,committed,NA,photovoltaic-unspecified,50,MW,PAK,PAK-SD,24.8739,67.0169,approximate,NA,NA,NA,NA,01/01/2024,,,FALSE,,,FALSE,,,,,pre_construction
TZPWR2403000054527U000,TZPWR2403000054527,Salt Range power station - --,Salt Range power station,inactive,coal-unspecified,coal-unspecified,330,MW,PAK,PAK-PB,32.583333,73.05,approximate,NA,NA,NA,NA,,,,TRUE,industrial,metals/mining,FALSE,,,,,cancelled
TZPWR2403000054528U000,TZPWR2403000054528,Sapphire Electric power station - 1,Sapphire Electric power station,operating,natural-gas,combined-cycle,225,MW,PAK,PAK-PB,31.761001,74.035548,exact,diesel,NA,NA,NA,01/01/2010,,,FALSE,,,FALSE,,,,,operating
TZPWR2403000054529U000,TZPWR2403000054529,Sapphire wind farm (Pakistan),Sapphire wind farm (Pakistan),operating,NA,wind-onshore,50,MW,PAK,PAK-SD,25.1218,67.8634,exact,NA,NA,NA,NA,01/01/2015,,,FALSE,,,FALSE,,,,,operating
TZPWR2403000054530U000,TZPWR2403000054530,Sapphire-Tricon wind farm,Sapphire-Tricon wind farm,operating,NA,wind-onshore,150,MW,PAK,PAK-SD,25.0541,67.8285,exact,NA,NA,NA,NA,01/01/2017,,,FALSE,,,FALSE,,,,,operating
TZPWR2403000054531U000,TZPWR2403000054531,Sehra hydroelectric plant,Sehra hydroelectric plant,inactive,water,hydro-unspecified,130,MW,PAK,PAK-JK,33.8441,73.7966,approximate,NA,NA,NA,NA,,,,FALSE,,,FALSE,,,,Poonch River,inactive
TZPWR2403000054532U000,TZPWR2403000054532,Shafi Energy wind farm,Shafi Energy wind farm,inactive,NA,wind-onshore,50,MW,PAK,PAK-SD,24.916,67.6367,exact,NA,NA,NA,NA,,,,FALSE,,,FALSE,,,,,shelved
TZPWR2403000054533U000,TZPWR2403000054533,Shaheen Renewable Energy wind farm,Shaheen Renewable Energy wind farm,inactive,NA,wind-onshore,51,MW,PAK,PAK-SD,25.1822,68.0633,approximate,NA,NA,NA,NA,,,,FALSE,,,FALSE,,,,,cancelled
TZPWR2403000054534U000,TZPWR2403000054534,Shahtaj Sugar Mills power station - 1,Shahtaj Sugar Mills power station,committed,agricultural-waste-solids,biomass,32,MW,PAK,PAK-PB,32.5887,73.4546,exact,NA,NA,NA,NA,01/01/2023,,,FALSE,,,FALSE,,,,,pre_construction
TZPWR2403000054535U000,TZPWR2403000054535,Sharmai hydroelectric plant,Sharmai hydroelectric plant,inactive,water,hydro-reservoir,150,MW,PAK,PAK-NW,35.1884,71.9625,exact,NA,NA,NA,NA,,,,FALSE,,,FALSE,,,,Panjkora River,inactive
TZPWR2403000054536U000,TZPWR2403000054536,Sheikhupura power station - --,Sheikhupura power station,committed,sub-bituminous,subcritical,31.5,MW,PAK,PAK-PB,31.6526,74.1808,approximate,agricultural-waste-solids,NA,NA,NA,01/01/2024,,,TRUE,non_industrial,iron/steel,FALSE,,,,,under_construction
TZPWR2403000054537U000,TZPWR2403000054537,Sheikoo Sugar Mill power station - 1,Sheikoo Sugar Mill power station,committed,agricultural-waste-solids,biomass,30,MW,PAK,PAK-PB,30.304,71.06001,exact,NA,NA,NA,NA,01/01/2024,,,FALSE,,,FALSE,,,,,pre_construction
TZPWR2403000054538U000,TZPWR2403000054538,Shigo Kas hydroelectric plant,Shigo Kas hydroelectric plant,inactive,water,hydro-run-of-river,102,MW,PAK,PAK-NW,34.7534,71.7996,exact,NA,NA,NA,NA,,,,FALSE,,,FALSE,,,,Panjkora River,inactive
TZPWR2403000054539U000,TZPWR2403000054539,Shogo-Sin hydroelectric plant,Shogo-Sin hydroelectric plant,committed,water,hydro-run-of-river,137,MW,PAK,PAK-NW,35.8509,71.7902,approximate,NA,NA,NA,NA,,,,FALSE,,,FALSE,,,,Lutkho River,pre_construction
TZPWR2403000054540U000,TZPWR2403000054540,Shushghai-Zhendoli hydroelectric plant,Shushghai-Zhendoli hydroelectric plant,inactive,water,hydro-run-of-river,144,MW,PAK,PAK-NW,36.3318,72.2872,approximate,NA,NA,NA,NA,,,,FALSE,,,FALSE,,,,Tirich Gol River,inactive
TZPWR2403000054541U000,TZPWR2403000054541,Sialkot power station - Unit 1,Sialkot power station,inactive,coal-unspecified,coal-unspecified,55,MW,PAK,PAK-PB,32.497222,74.536111,approximate,NA,NA,NA,NA,,,,FALSE,,,FALSE,,,,,cancelled
TZPWR2403000054541U001,TZPWR2403000054541,Sialkot power station - Unit 2,Sialkot power station,inactive,coal-unspecified,coal-unspecified,55,MW,PAK,PAK-PB,32.497222,74.536111,approximate,NA,NA,NA,NA,,,,FALSE,,,FALSE,,,,,cancelled
TZPWR2403000054542U000,TZPWR2403000054542,Siddiqsons power station - --,Siddiqsons power station,committed,lignite,supercritical,330,MW,PAK,PAK-SD,24.783618,70.367088,approximate,NA,NA,NA,NA,01/01/2026,,,FALSE,,,FALSE,,,,,permitted
TZPWR2403000054543U000,TZPWR2403000054543,Sino Well wind farm,Sino Well wind farm,inactive,NA,wind-onshore,50,MW,PAK,PAK-SD,25.1689,68.0339,exact,NA,NA,NA,NA,,,,FALSE,,,FALSE,,,,,shelved
TZPWR2403000054544U000,TZPWR2403000054544,Site gas power station - 1,Site gas power station,operating,natural-gas,internal-combustion-combined-cycle,87.648,MW,PAK,PAK-SD,24.90491851,66.97593625,approximate,liquified-natural-gas,NA,NA,NA,01/01/2009,,,FALSE,,,FALSE,,,,,operating
TZPWR2403000054545U000,TZPWR2403000054545,Southern Electric Power Project power plant - 1:5,Southern Electric Power Project power plant,operating,heavy-fuel-oil,internal-combustion-combined-cycle,117,MW,PAK,PAK-PB,31.29198088,74.24869071,exact,NA,NA,NA,NA,01/01/1999,,,FALSE,,,FALSE,,,,,operating
TZPWR2403000054546U000,TZPWR2403000054546,Suki Kinari hydroelectric plant,Suki Kinari hydroelectric plant,committed,water,hydro-reservoir,870,MW,PAK,PAK-NW,34.5001,73.2501,approximate,NA,NA,NA,NA,01/01/2024,,,FALSE,,,FALSE,,,,Kunhar River,under_construction
TZPWR2403000054547U000,TZPWR2403000054547,Sukkur solar farm - 1,Sukkur solar farm,committed,NA,photovoltaic-unspecified,50,MWp/dc,PAK,PAK-SD,24.8739,67.0169,approximate,NA,NA,NA,NA,01/01/2023,,,FALSE,,,FALSE,,,,,under_construction
TZPWR2403000054547U001,TZPWR2403000054547,Sukkur solar farm - 2,Sukkur solar farm,committed,NA,photovoltaic-unspecified,50,MWp/dc,PAK,PAK-SD,24.8739,67.0169,approximate,NA,NA,NA,NA,01/01/2023,,,FALSE,,,FALSE,,,,,under_construction
TZPWR2403000054547U002,TZPWR2403000054547,Sukkur solar farm - 3,Sukkur solar farm,committed,NA,photovoltaic-unspecified,50,MWp/dc,PAK,PAK-SD,24.8739,67.0169,approximate,NA,NA,NA,NA,01/01/2023,,,FALSE,,,FALSE,,,,,under_construction
TZPWR2403000054548U000,TZPWR2403000054548,Suraj solar farm,Suraj solar farm,inactive,NA,photovoltaic-unspecified,50,MW,PAK,PAK-PB,33.0282,72.0575,approximate,NA,NA,NA,NA,,,,FALSE,,,FALSE,,,,,cancelled
TZPWR2403000054549U000,TZPWR2403000054549,Tapal Energy Power Project power plant - 1:12,Tapal Energy Power Project power plant,operating,heavy-fuel-oil,internal-combustion-combined-cycle,126,MW,PAK,PAK-SD,25.00013621,66.90771194,exact,NA,NA,NA,NA,01/01/1997,,,FALSE,,,FALSE,,,,,operating
TZPWR2403000054550U000,TZPWR2403000054550,Tarbela 4th Extension hydroelectric plant,Tarbela 4th Extension hydroelectric plant,operating,water,hydro-reservoir,1410,MW,PAK,PAK-NW,34.0896,72.6867,exact,NA,NA,NA,NA,01/01/2018,,,FALSE,,,FALSE,,,,Indus River,operating
TZPWR2403000054551U000,TZPWR2403000054551,Tarbela 5th Extension hydroelectric plant,Tarbela 5th Extension hydroelectric plant,committed,water,hydro-reservoir,1530,MW,PAK,PAK-NW,34.0877,72.6995,approximate,NA,NA,NA,NA,01/01/2026,,,FALSE,,,FALSE,,,,Indus River,under_construction
TZPWR2403000054552U000,TZPWR2403000054552,Tarbela hydroelectric plant,Tarbela hydroelectric plant,operating,water,hydro-reservoir,3478,MW,PAK,PAK-NW,34.0894,72.6875,exact,NA,NA,NA,NA,01/01/1977,,,FALSE,,,FALSE,,,,Indus River,operating
TZPWR2403000054553U000,TZPWR2403000054553,Tarbela solar farm - Attock District Floating solar farm,Tarbela solar farm,planned,NA,photovoltaic-unspecified,150,MW,PAK,PAK-PB,33.7811,72.2558,approximate,NA,NA,NA,NA,,,,FALSE,,,FALSE,,,,,announced
TZPWR2403000054553U001,TZPWR2403000054553,Tarbela solar farm - Ghazi Barrage Floating solar farm,Tarbela solar farm,planned,NA,photovoltaic-unspecified,150,MW,PAK,PAK-PB,33.7811,72.2558,approximate,NA,NA,NA,NA,,,,FALSE,,,FALSE,,,,,announced
TZPWR2403000054554U000,TZPWR2403000054554,Taunsa hydroelectric plant,Taunsa hydroelectric plant,committed,water,hydro-run-of-river,135,MW,PAK,PAK-PB,29.8333,70.5001,approximate,NA,NA,NA,NA,,,,FALSE,,,FALSE,,,,Indus River,pre_construction
TZPWR2403000054555U000,TZPWR2403000054555,Tenega Generasi wind farm,Tenega Generasi wind farm,operating,NA,wind-onshore,50,MW,PAK,PAK-SD,24.6135,67.4298,exact,NA,NA,NA,NA,01/01/2016,,,FALSE,,,FALSE,,,,,operating
TZPWR2403000054556U000,TZPWR2403000054556,Thakot I hydroelectric plant,Thakot I hydroelectric plant,committed,water,hydro-run-of-river,2220,MW,PAK,PAK-NW,34.9117,72.8682,approximate,NA,NA,NA,NA,,,,FALSE,,,FALSE,,,,,pre_construction
TZPWR2403000054557U000,TZPWR2403000054557,Thakot II hydroelectric plant,Thakot II hydroelectric plant,planned,water,hydro-run-of-river,963,MW,PAK,PAK-NW,34.9117,72.8682,approximate,NA,NA,NA,NA,,,,FALSE,,,FALSE,,,,,announced
TZPWR2403000054558U000,TZPWR2403000054558,Thakot III hydroelectric plant,Thakot III hydroelectric plant,planned,water,hydro-run-of-river,1683,MW,PAK,PAK-NW,34.7881,72.9296,approximate,NA,NA,NA,NA,,,,FALSE,,,FALSE,,,,,announced
TZPWR2403000054559U000,TZPWR2403000054559,ThalNova power station - --,ThalNova power station,operating,lignite,circulating-fluidized-bed,330,MW,PAK,PAK-SD,24.815456,70.388369,exact,NA,NA,NA,NA,01/01/2023,,,FALSE,,,FALSE,,,,,operating
TZPWR2403000054560U000,TZPWR2403000054560,Thar Block I power station - Unit 1,Thar Block I power station,operating,coal-unspecified,subcritical,660,MW,PAK,PAK-SD,24.710803,70.302493,exact,NA,NA,NA,NA,01/01/2023,,,FALSE,,,FALSE,,,,,operating
TZPWR2403000054560U001,TZPWR2403000054560,Thar Block I power station - Unit 2,Thar Block I power station,operating,coal-unspecified,subcritical,660,MW,PAK,PAK-SD,24.710803,70.302493,exact,NA,NA,NA,NA,01/01/2023,,,FALSE,,,FALSE,,,,,operating
TZPWR2403000054561U000,TZPWR2403000054561,Thar Block II power station - Unit 1,Thar Block II power station,operating,lignite,subcritical,330,MW,PAK,PAK-SD,24.812481,70.394069,exact,NA,NA,NA,NA,01/01/2019,,,FALSE,,,FALSE,,,,,operating
TZPWR2403000054561U001,TZPWR2403000054561,Thar Block II power station - Unit 2,Thar Block II power station,operating,lignite,subcritical,330,MW,PAK,PAK-SD,24.812481,70.394069,exact,NA,NA,NA,NA,01/01/2019,,,FALSE,,,FALSE,,,,,operating
TZPWR2403000054562U000,TZPWR2403000054562,Thar Block III power station - --,Thar Block III power station,inactive,coal-unspecified,coal-unspecified,1320,MW,PAK,PAK-SD,24.783618,70.367088,approximate,NA,NA,NA,NA,,,,FALSE,,,FALSE,,,,,cancelled
TZPWR2403000054563U000,TZPWR2403000054563,Thar Block IV power station - --,Thar Block IV power station,inactive,coal-unspecified,coal-unspecified,660,MW,PAK,PAK-SD,24.783618,70.367088,approximate,NA,NA,NA,NA,,,,FALSE,,,FALSE,,,,,cancelled
TZPWR2403000054564U000,TZPWR2403000054564,Thar Block VI power station - Unit 1,Thar Block VI power station,planned,lignite,supercritical,700,MW,PAK,PAK-SD,24.840802,70.315075,approximate,NA,NA,NA,NA,01/01/2028,,,FALSE,,,FALSE,,,,,pre_permit
TZPWR2403000054564U001,TZPWR2403000054564,Thar Block VI power station - Unit 2,Thar Block VI power station,planned,lignite,supercritical,700,MW,PAK,PAK-SD,24.840802,70.315075,approximate,NA,NA,NA,NA,01/01/2028,,,FALSE,,,FALSE,,,,,pre_permit
TZPWR2403000054565U000,TZPWR2403000054565,Thar Energy Limited power station - --,Thar Energy Limited power station,operating,lignite,circulating-fluidized-bed,330,MW,PAK,PAK-SD,24.806214,70.400501,exact,NA,NA,NA,NA,01/01/2022,,,FALSE,,,FALSE,,,,,operating
TZPWR2403000054566U000,TZPWR2403000054566,Thar Hassan power station - Unit 1,Thar Hassan power station,inactive,coal-unspecified,subcritical,250,MW,PAK,PAK-SD,24.7,70.2,approximate,NA,NA,NA,NA,,,,FALSE,,,FALSE,,,,,cancelled
TZPWR2403000054566U001,TZPWR2403000054566,Thar Hassan power station - Unit 2,Thar Hassan power station,inactive,coal-unspecified,subcritical,250,MW,PAK,PAK-SD,24.7,70.2,approximate,NA,NA,NA,NA,,,,FALSE,,,FALSE,,,,,cancelled
TZPWR2403000054566U002,TZPWR2403000054566,Thar Hassan power station - Unit 3,Thar Hassan power station,inactive,coal-unspecified,subcritical,250,MW,PAK,PAK-SD,24.7,70.2,approximate,NA,NA,NA,NA,,,,FALSE,,,FALSE,,,,,cancelled
TZPWR2403000054566U003,TZPWR2403000054566,Thar Hassan power station - Unit 4,Thar Hassan power station,inactive,coal-unspecified,subcritical,250,MW,PAK,PAK-SD,24.7,70.2,approximate,NA,NA,NA,NA,,,,FALSE,,,FALSE,,,,,cancelled
TZPWR2403000054567U000,TZPWR2403000054567,Thar solar project,Thar solar project,operating,NA,photovoltaic-unspecified,5,MWp/dc,PAK,PAK-SD,24.798,70.392,approximate,NA,NA,NA,NA,01/01/2019,,,FALSE,,,FALSE,,,,,operating
TZPWR2403000054568U000,TZPWR2403000054568,Thatta (ACT) solar farm,Thatta (ACT) solar farm,committed,NA,photovoltaic-unspecified,50,MW,PAK,PAK-SD,24.8553,67.2129,approximate,NA,NA,NA,NA,,,,FALSE,,,FALSE,,,,,under_construction
TZPWR2403000054569U000,TZPWR2403000054569,Thatta (ET) solar farm,Thatta (ET) solar farm,planned,NA,photovoltaic-unspecified,25,MW,PAK,PAK-SD,24.8553,67.2129,approximate,NA,NA,NA,NA,,,,FALSE,,,FALSE,,,,,announced
TZPWR2403000054570U000,TZPWR2403000054570,Thatta (Siachen) solar farm - 1,Thatta (Siachen) solar farm,planned,NA,photovoltaic-unspecified,100,MW,PAK,PAK-SD,24.5485,67.6259,approximate,NA,NA,NA,NA,01/01/2023,,,FALSE,,,FALSE,,,,,announced
TZPWR2403000054570U001,TZPWR2403000054570,Thatta (Siachen) solar farm - 2,Thatta (Siachen) solar farm,planned,NA,photovoltaic-unspecified,100,MW,PAK,PAK-SD,24.5485,67.6259,approximate,NA,NA,NA,NA,,,,FALSE,,,FALSE,,,,,announced
TZPWR2403000054571U000,TZPWR2403000054571,Trans Atlantic wind farm,Trans Atlantic wind farm,planned,NA,wind-onshore,48,MW,PAK,PAK-SD,24.9353,67.8001,approximate,NA,NA,NA,NA,01/01/2024,,,FALSE,,,FALSE,,,,,announced
TZPWR2403000054572U000,TZPWR2403000054572,Tricom wind farm,Tricom wind farm,operating,NA,wind-onshore,50,MW,PAK,PAK-SD,25.1118,68.0648,exact,NA,NA,NA,NA,01/01/2021,,,FALSE,,,FALSE,,,,,operating
TZPWR2403000054573U000,TZPWR2403000054573,Trimmu power station - 1,Trimmu power station,operating,liquified-natural-gas,combined-cycle,1263,MW,PAK,PAK-PB,31.116943,72.188502,exact,NA,NA,NA,NA,01/01/2022,,,FALSE,,,FALSE,,,,,operating
TZPWR2403000054574U000,TZPWR2403000054574,Tungas hydroelectric plant,Tungas hydroelectric plant,committed,water,hydro-reservoir,2200,MW,PAK,PAK-NA,35.7413,74.6247,approximate,NA,NA,NA,NA,,,,FALSE,,,FALSE,,,,Indus River,pre_construction
TZPWR2403000054575U000,TZPWR2403000054575,Turtonas-Uzghor hydroelectric plant,Turtonas-Uzghor hydroelectric plant,committed,water,hydro-run-of-river,82,MW,PAK,PAK-NW,35.8509,71.7902,approximate,NA,NA,NA,NA,,,,FALSE,,,FALSE,,,,Golen Gol River,pre_construction
TZPWR2403000054576U000,TZPWR2403000054576,UEP wind farm,UEP wind farm,operating,NA,wind-onshore,99,MW,PAK,PAK-SD,25.106,67.837,exact,NA,NA,NA,NA,01/01/2017,,,FALSE,,,FALSE,,,,,operating
TZPWR2403000054577U000,TZPWR2403000054577,Uch power station - 1,Uch power station,operating,natural-gas,combined-cycle,586,MW,PAK,PAK-BA,28.582708,68.176209,exact,diesel,NA,NA,NA,01/01/2000,,,FALSE,,,FALSE,,,,,operating
TZPWR2403000054577U001,TZPWR2403000054577,Uch power station - 2,Uch power station,operating,natural-gas,combined-cycle,404,MW,PAK,PAK-BA,28.582708,68.176209,exact,diesel,NA,NA,NA,01/01/2014,,,FALSE,,,FALSE,,,,,operating
TZPWR2403000054578U000,TZPWR2403000054578,Upper Palas Valley hydroelectric plant,Upper Palas Valley hydroelectric plant,committed,water,hydro-reservoir,157,MW,PAK,PAK-NW,35.1035,72.9998,approximate,NA,NA,NA,NA,,,,FALSE,,,FALSE,,,,Indus River,pre_construction
TZPWR2403000054579U000,TZPWR2403000054579,Upper Spat Gah hydroelectric plant,Upper Spat Gah hydroelectric plant,committed,water,hydro-reservoir,252,MW,PAK,PAK-TA,33.7128,71.2679,approximate,NA,NA,NA,NA,,,,FALSE,,,FALSE,,,,Indus River,pre_construction
TZPWR2403000054580U000,TZPWR2403000054580,Vehari power station - --,Vehari power station,inactive,coal-unspecified,coal-unspecified,220,MW,PAK,PAK-PB,30.047,72.331,approximate,NA,NA,NA,NA,,,,FALSE,,,FALSE,,,,,cancelled
TZPWR2403000054581U000,TZPWR2403000054581,Warsak hydroelectric plant,Warsak hydroelectric plant,operating,water,hydro-reservoir,243,MW,PAK,PAK-TA,34.1642,71.3591,exact,NA,NA,NA,NA,01/01/1960,,,FALSE,,,FALSE,,,,Kabul River,operating
TZPWR2403000054582U000,TZPWR2403000054582,Western Energy wind farm,Western Energy wind farm,planned,NA,wind-onshore,50,MW,PAK,PAK-SD,25.1854,68.0447,exact,NA,NA,NA,NA,01/01/2024,,,FALSE,,,FALSE,,,,,announced
TZPWR2403000054583U000,TZPWR2403000054583,Wikov wind farm,Wikov wind farm,inactive,NA,wind-onshore,50,MW,PAK,PAK-SD,24.9102,67.786,approximate,NA,NA,NA,NA,,,,FALSE,,,FALSE,,,,,cancelled
TZPWR2403000054584U000,TZPWR2403000054584,Yulbo hydroelectric plant,Yulbo hydroelectric plant,committed,water,hydro-reservoir,2800,MW,PAK,PAK-NA,35.6533,75.0192,approximate,NA,NA,NA,NA,,,,FALSE,,,FALSE,,,,Astak Nala,pre_construction
TZPWR2403000054585U000,TZPWR2403000054585,Yunus Energy wind farm,Yunus Energy wind farm,operating,NA,wind-onshore,50,MW,PAK,PAK-SD,25.1459,67.9497,exact,NA,NA,NA,NA,01/01/2016,,,FALSE,,,FALSE,,,,,operating
TZPWR2403000054586U000,TZPWR2403000054586,Zephyr wind farm,Zephyr wind farm,operating,NA,wind-onshore,50,MW,PAK,PAK-SD,24.7045,67.4773,exact,NA,NA,NA,NA,01/01/2019,,,FALSE,,,FALSE,,,,,operating
TZPWR2403000054587U000,TZPWR2403000054587,Zorlu Energy wind farm - 2,Zorlu Energy wind farm,operating,NA,wind-onshore,50,MW,PAK,PAK-SD,25.057,67.9848,exact,NA,NA,NA,NA,01/01/2012,,,FALSE,,,FALSE,,,,,operating
TZPWR2403000054588U000,TZPWR2403000054588,Zorlu solar farm - 1,Zorlu solar farm,planned,NA,photovoltaic-unspecified,100,MW,PAK,PAK-PB,29.277,71.7983,exact,NA,NA,NA,NA,,,,FALSE,,,FALSE,,,,,announced
TZPWR2403000054588U001,TZPWR2403000054588,Zorlu solar farm - 2,Zorlu solar farm,inactive,NA,photovoltaic-unspecified,100,MW,PAK,PAK-PB,29.277,71.7983,approximate,NA,NA,NA,NA,,,,FALSE,,,FALSE,,,,,shelved
TZPWR2403000054588U002,TZPWR2403000054588,Zorlu solar farm - 3,Zorlu solar farm,inactive,NA,photovoltaic-unspecified,100,MW,PAK,PAK-PB,29.277,71.7983,approximate,NA,NA,NA,NA,,,,FALSE,,,FALSE,,,,,shelved